<?xml version='1.0' encoding='UTF-8'?>
<gpx creator="Hydra KML to GPX converter" version="1.0" xmlns="http://www.topografix.com/GPX/1/0" xmlns:xsi="http://www.w3.org/2001/XMLSchema-instance" xsi:schemaLocation="http://www.topografix.com/GPX/1/0 http://www.topografix.com/GPX/1/0/gpx.xsd">
	
	<name>Category:Areas of London</name><description /><wpt lat="51.4864" lon="0.1109"><ele>0</ele>

	<name>Abbey Wood</name><desc>Source: Wikipedia article Abbey Wood</desc><cmt>Source: Wikipedia article Abbey Wood</cmt></wpt><wpt lat="51.513519" lon="-0.270661"><ele>0</ele>
	<name>Acton, London</name><desc>Source: Wikipedia article Acton, London</desc><cmt>Source: Wikipedia article Acton, London</cmt></wpt><wpt lat="51.510515" lon="-0.262668"><ele>0</ele>
	<name>Acton Green, London</name><desc>Source: Wikipedia article Acton Green, London</desc><cmt>Source: Wikipedia article Acton Green, London</cmt></wpt><wpt lat="51.511" lon="-0.258"><ele>0</ele>
	<name>Acton Vale, London</name><desc>Source: Wikipedia article Acton Vale, London</desc><cmt>Source: Wikipedia article Acton Vale, London</cmt></wpt><wpt lat="51.3583" lon="-0.0305"><ele>0</ele>
	<name>Addington, London</name><desc>Source: Wikipedia article Addington, London</desc><cmt>Source: Wikipedia article Addington, London</cmt></wpt><wpt lat="51.381" lon="-0.0663"><ele>0</ele>
	<name>Addiscombe</name><desc>Source: Wikipedia article Addiscombe</desc><cmt>Source: Wikipedia article Addiscombe</cmt></wpt><wpt lat="51.5091666666667" lon="-0.1225"><ele>0</ele>
	<name>Adelphi, London</name><desc>Source: Wikipedia article Adelphi, London</desc><cmt>Source: Wikipedia article Adelphi, London</cmt></wpt><wpt lat="51.5388888888889" lon="-0.131944444444444"><ele>0</ele>
	<name>Agar Town</name><desc>Source: Wikipedia article Agar Town</desc><cmt>Source: Wikipedia article Agar Town</cmt></wpt><wpt lat="51.4264" lon="0.1026"><ele>0</ele>
	<name>Albany Park, Bexley</name><desc>Source: Wikipedia article Albany Park, Bexley</desc><cmt>Source: Wikipedia article Albany Park, Bexley</cmt></wpt><wpt lat="51.4980555555556" lon="-0.176666666666667"><ele>0</ele>
	<name>Albertopolis</name><desc>Source: Wikipedia article Albertopolis</desc><cmt>Source: Wikipedia article Albertopolis</cmt></wpt><wpt lat="51.58355" lon="0.10102165"><ele>0</ele>
	<name>Aldborough Hatch</name><desc>Source: Wikipedia article Aldborough Hatch</desc><cmt>Source: Wikipedia article Aldborough Hatch</cmt></wpt><wpt lat="51.5132" lon="-0.1167"><ele>0</ele>
	<name>Aldwych</name><desc>Source: Wikipedia article Aldwych</desc><cmt>Source: Wikipedia article Aldwych</cmt></wpt><wpt lat="51.5405" lon="-0.2994"><ele>0</ele>
	<name>Alperton</name><desc>Source: Wikipedia article Alperton</desc><cmt>Source: Wikipedia article Alperton</cmt></wpt><wpt lat="51.4147" lon="-0.067"><ele>0</ele>
	<name>Anerley</name><desc>Source: Wikipedia article Anerley</desc><cmt>Source: Wikipedia article Anerley</cmt></wpt><wpt lat="51.5321" lon="-0.1066"><ele>0</ele>
	<name>Angel, London</name><desc>Source: Wikipedia article Angel, London</desc><cmt>Source: Wikipedia article Angel, London</cmt></wpt><wpt lat="51.3069" lon="0.0448"><ele>0</ele>
	<name>Aperfield</name><desc>Source: Wikipedia article Aperfield</desc><cmt>Source: Wikipedia article Aperfield</cmt></wpt><wpt lat="51.566" lon="-0.1338"><ele>0</ele>
	<name>Archway, London</name><desc>Source: Wikipedia article Archway, London</desc><cmt>Source: Wikipedia article Archway, London</cmt></wpt><wpt lat="51.5833" lon="0.2165"><ele>0</ele>
	<name>Ardleigh Green</name><desc>Source: Wikipedia article Ardleigh Green</desc><cmt>Source: Wikipedia article Ardleigh Green</cmt></wpt><wpt lat="51.6477" lon="-0.2311"><ele>0</ele>
	<name>Arkley</name><desc>Source: Wikipedia article Arkley</desc><cmt>Source: Wikipedia article Arkley</cmt></wpt><wpt lat="51.6163" lon="-0.1286"><ele>0</ele>
	<name>Arnos Grove</name><desc>Source: Wikipedia article Arnos Grove</desc><cmt>Source: Wikipedia article Arnos Grove</cmt></wpt><wpt lat="51.387849" lon="-0.067509"><ele>0</ele>
	<name>Ashburton, London</name><desc>Source: Wikipedia article Ashburton, London</desc><cmt>Source: Wikipedia article Ashburton, London</cmt></wpt><wpt lat="51.451434" lon="0.076128"><ele>0</ele>
	<name>Avery Hill</name><desc>Source: Wikipedia article Avery Hill</desc><cmt>Source: Wikipedia article Avery Hill</cmt></wpt><wpt lat="51.575523" lon="-0.012596"><ele>0</ele>
	<name>Bakers Arms</name><desc>Source: Wikipedia article Bakers Arms</desc><cmt>Source: Wikipedia article Bakers Arms</cmt></wpt><wpt lat="51.4434" lon="-0.1525"><ele>0</ele>
	<name>Balham</name><desc>Source: Wikipedia article Balham</desc><cmt>Source: Wikipedia article Balham</cmt></wpt><wpt lat="51.3636" lon="-0.133445"><ele>0</ele>
	<name>Bandonhill</name><desc>Source: Wikipedia article Bandonhill</desc><cmt>Source: Wikipedia article Bandonhill</cmt></wpt><wpt lat="51.5082" lon="-0.1001"><ele>0</ele>
	<name>Bankside</name><desc>Source: Wikipedia article Bankside</desc><cmt>Source: Wikipedia article Bankside</cmt></wpt><wpt lat="51.54" lon="0.08"><ele>0</ele>
	<name>Barking, London</name><desc>Source: Wikipedia article Barking, London</desc><cmt>Source: Wikipedia article Barking, London</cmt></wpt><wpt lat="51.5228" lon="0.1124"><ele>0</ele>
	<name>Barking Riverside</name><desc>Source: Wikipedia article Barking Riverside</desc><cmt>Source: Wikipedia article Barking Riverside</cmt></wpt><wpt lat="51.585833" lon="0.084444"><ele>0</ele>
	<name>Barkingside</name><desc>Source: Wikipedia article Barkingside</desc><cmt>Source: Wikipedia article Barkingside</cmt></wpt><wpt lat="51.4613" lon="0.169"><ele>0</ele>
	<name>Barnehurst</name><desc>Source: Wikipedia article Barnehurst</desc><cmt>Source: Wikipedia article Barnehurst</cmt></wpt><wpt lat="51.474" lon="-0.236"><ele>0</ele>
	<name>Barnes, London</name><desc>Source: Wikipedia article Barnes, London</desc><cmt>Source: Wikipedia article Barnes, London</cmt></wpt><wpt lat="51.4578" lon="0.196"><ele>0</ele>
	<name>Barnes Cray</name><desc>Source: Wikipedia article Barnes Cray</desc><cmt>Source: Wikipedia article Barnes Cray</cmt></wpt><wpt lat="51.5442" lon="-0.1171"><ele>0</ele>
	<name>Barnsbury</name><desc>Source: Wikipedia article Barnsbury</desc><cmt>Source: Wikipedia article Barnsbury</cmt></wpt><wpt lat="51.354725" lon="-0.319215"><ele>0</ele>
	<name>Barwell, London</name><desc>Source: Wikipedia article Barwell, London</desc><cmt>Source: Wikipedia article Barwell, London</cmt></wpt><wpt lat="51.46377" lon="-0.16771"><ele>0</ele>
	<name>Battersea</name><desc>Source: Wikipedia article Battersea</desc><cmt>Source: Wikipedia article Battersea</cmt></wpt><wpt lat="51.5095" lon="-0.1929"><ele>0</ele>
	<name>Bayswater</name><desc>Source: Wikipedia article Bayswater</desc><cmt>Source: Wikipedia article Bayswater</cmt></wpt><wpt lat="51.5199" lon="0.1688"><ele>0</ele>
	<name>Beam Reach</name><desc>Source: Wikipedia article Beam Reach</desc><cmt>Source: Wikipedia article Beam Reach</cmt></wpt><wpt lat="51.408" lon="-0.022"><ele>0</ele>
	<name>Beckenham</name><desc>Source: Wikipedia article Beckenham</desc><cmt>Source: Wikipedia article Beckenham</cmt></wpt><wpt lat="51.5146" lon="0.0673"><ele>0</ele>
	<name>Beckton</name><desc>Source: Wikipedia article Beckton</desc><cmt>Source: Wikipedia article Beckton</cmt></wpt><wpt lat="51.5487" lon="0.1427"><ele>0</ele>
	<name>Becontree</name><desc>Source: Wikipedia article Becontree</desc><cmt>Source: Wikipedia article Becontree</cmt></wpt><wpt lat="51.563595" lon="0.152614"><ele>0</ele>
	<name>Becontree Heath</name><desc>Source: Wikipedia article Becontree Heath</desc><cmt>Source: Wikipedia article Becontree Heath</cmt></wpt><wpt lat="51.3734" lon="-0.1241"><ele>0</ele>
	<name>Beddington</name><desc>Source: Wikipedia article Beddington</desc><cmt>Source: Wikipedia article Beddington</cmt></wpt><wpt lat="51.45" lon="-0.44"><ele>0</ele>
	<name>Bedfont</name><desc>Source: Wikipedia article Bedfont</desc><cmt>Source: Wikipedia article Bedfont</cmt></wpt><wpt lat="51.500099" lon="-0.261699"><ele>0</ele>
	<name>Bedford Park, London</name><desc>Source: Wikipedia article Bedford Park, London</desc><cmt>Source: Wikipedia article Bedford Park, London</cmt></wpt><wpt lat="51.49795" lon="-0.15453"><ele>0</ele>
	<name>Belgravia</name><desc>Source: Wikipedia article Belgravia</desc><cmt>Source: Wikipedia article Belgravia</cmt></wpt><wpt lat="51.430775" lon="-0.033592"><ele>0</ele>
	<name>Bell Green, London</name><desc>Source: Wikipedia article Bell Green, London</desc><cmt>Source: Wikipedia article Bell Green, London</cmt></wpt><wpt lat="51.4687" lon="-0.0726"><ele>0</ele>
	<name>Bellenden Road</name><desc>Source: Wikipedia article Bellenden Road</desc><cmt>Source: Wikipedia article Bellenden Road</cmt></wpt><wpt lat="51.4311" lon="-0.0245"><ele>0</ele>
	<name>Bellingham, London</name><desc>Source: Wikipedia article Bellingham, London</desc><cmt>Source: Wikipedia article Bellingham, London</cmt></wpt><wpt lat="51.6013" lon="-0.31929"><ele>0</ele>
	<name>Belmont, Harrow</name><desc>Source: Wikipedia article Belmont, Harrow</desc><cmt>Source: Wikipedia article Belmont, Harrow</cmt></wpt><wpt lat="51.34328" lon="-0.20239"><ele>0</ele>
	<name>Belmont, Sutton</name><desc>Source: Wikipedia article Belmont, Sutton</desc><cmt>Source: Wikipedia article Belmont, Sutton</cmt></wpt><wpt lat="51.5449" lon="-0.1632"><ele>0</ele>
	<name>Belsize Park</name><desc>Source: Wikipedia article Belsize Park</desc><cmt>Source: Wikipedia article Belsize Park</cmt></wpt><wpt lat="51.4856" lon="0.1541"><ele>0</ele>
	<name>Belvedere, London</name><desc>Source: Wikipedia article Belvedere, London</desc><cmt>Source: Wikipedia article Belvedere, London</cmt></wpt><wpt lat="51.372" lon="-0.191"><ele>0</ele>
	<name>Benhilton</name><desc>Source: Wikipedia article Benhilton</desc><cmt>Source: Wikipedia article Benhilton</cmt></wpt><wpt lat="51.4986" lon="-0.0757"><ele>0</ele>
	<name>Bermondsey</name><desc>Source: Wikipedia article Bermondsey</desc><cmt>Source: Wikipedia article Bermondsey</cmt></wpt><wpt lat="51.3136" lon="0.0621"><ele>0</ele>
	<name>Berry's Green</name><desc>Source: Wikipedia article Berry's Green</desc><cmt>Source: Wikipedia article Berry's Green</cmt></wpt><wpt lat="51.393" lon="-0.287"><ele>0</ele>
	<name>Berrylands</name><desc>Source: Wikipedia article Berrylands</desc><cmt>Source: Wikipedia article Berrylands</cmt></wpt><wpt lat="51.5275" lon="-0.066"><ele>0</ele>
	<name>Bethnal Green</name><desc>Source: Wikipedia article Bethnal Green</desc><cmt>Source: Wikipedia article Bethnal Green</cmt></wpt><wpt lat="51.441" lon="0.149"><ele>0</ele>
	<name>Bexley</name><desc>Source: Wikipedia article Bexley</desc><cmt>Source: Wikipedia article Bexley</cmt></wpt><wpt lat="51.459" lon="0.138"><ele>0</ele>
	<name>Bexleyheath</name><desc>Source: Wikipedia article Bexleyheath</desc><cmt>Source: Wikipedia article Bexleyheath</cmt></wpt><wpt lat="51.4003" lon="0.0466"><ele>0</ele>
	<name>Bickley</name><desc>Source: Wikipedia article Bickley</desc><cmt>Source: Wikipedia article Bickley</cmt></wpt><wpt lat="51.3127" lon="0.0336"><ele>0</ele>
	<name>Biggin Hill</name><desc>Source: Wikipedia article Biggin Hill</desc><cmt>Source: Wikipedia article Biggin Hill</cmt></wpt><wpt lat="51.4508" lon="0.09255"><ele>0</ele>
	<name>Blackfen</name><desc>Source: Wikipedia article Blackfen</desc><cmt>Source: Wikipedia article Blackfen</cmt></wpt><wpt lat="51.512" lon="-0.104"><ele>0</ele>
	<name>Blackfriars, London</name><desc>Source: Wikipedia article Blackfriars, London</desc><cmt>Source: Wikipedia article Blackfriars, London</cmt></wpt><wpt lat="51.47" lon="0.009"><ele>0</ele>
	<name>Blackheath, London</name><desc>Source: Wikipedia article Blackheath, London</desc><cmt>Source: Wikipedia article Blackheath, London</cmt></wpt><wpt lat="51.5063" lon="-0.0034"><ele>0</ele>
	<name>Blackwall, London</name><desc>Source: Wikipedia article Blackwall, London</desc><cmt>Source: Wikipedia article Blackwall, London</cmt></wpt><wpt lat="51.447053" lon="0.123575"><ele>0</ele>
	<name>Blendon, London</name><desc>Source: Wikipedia article Blendon, London</desc><cmt>Source: Wikipedia article Blendon, London</cmt></wpt><wpt lat="51.5262" lon="-0.1178"><ele>0</ele>
	<name>Bloomsbury</name><desc>Source: Wikipedia article Bloomsbury</desc><cmt>Source: Wikipedia article Bloomsbury</cmt></wpt><wpt lat="51.6765" lon="-0.1232"><ele>0</ele>
	<name>Botany Bay, London</name><desc>Source: Wikipedia article Botany Bay, London</desc><cmt>Source: Wikipedia article Botany Bay, London</cmt></wpt><wpt lat="51.6064" lon="-0.1246"><ele>0</ele>
	<name>Bounds Green</name><desc>Source: Wikipedia article Bounds Green</desc><cmt>Source: Wikipedia article Bounds Green</cmt></wpt><wpt lat="51.5298" lon="-0.0288"><ele>0</ele>
	<name>Bow, London</name><desc>Source: Wikipedia article Bow, London</desc><cmt>Source: Wikipedia article Bow, London</cmt></wpt><wpt lat="51.51801" lon="-0.021093"><ele>0</ele>
	<name>Bow Common</name><desc>Source: Wikipedia article Bow Common</desc><cmt>Source: Wikipedia article Bow Common</cmt></wpt><wpt lat="51.601" lon="-0.114"><ele>0</ele>
	<name>Bowes Park</name><desc>Source: Wikipedia article Bowes Park</desc><cmt>Source: Wikipedia article Bowes Park</cmt></wpt><wpt lat="51.499" lon="-0.232"><ele>0</ele>
	<name>Brackenbury Village</name><desc>Source: Wikipedia article Brackenbury Village</desc><cmt>Source: Wikipedia article Brackenbury Village</cmt></wpt><wpt lat="51.577" lon="-0.219"><ele>0</ele>
	<name>Brent Cross</name><desc>Source: Wikipedia article Brent Cross</desc><cmt>Source: Wikipedia article Brent Cross</cmt></wpt><wpt lat="51.551965" lon="-0.2603"><ele>0</ele>
	<name>Brent Park</name><desc>Source: Wikipedia article Brent Park</desc><cmt>Source: Wikipedia article Brent Park</cmt></wpt><wpt lat="51.486" lon="-0.31"><ele>0</ele>
	<name>Brentford</name><desc>Source: Wikipedia article Brentford</desc><cmt>Source: Wikipedia article Brentford</cmt></wpt><wpt lat="51.482" lon="-0.32"><ele>0</ele>
	<name>Brentford End</name><desc>Source: Wikipedia article Brentford End</desc><cmt>Source: Wikipedia article Brentford End</cmt></wpt><wpt lat="51.527007" lon="-0.304877"><ele>0</ele>
	<name>Brentham Garden Suburb</name><desc>Source: Wikipedia article Brentham Garden Suburb</desc><cmt>Source: Wikipedia article Brentham Garden Suburb</cmt></wpt><wpt lat="51.66" lon="-0.026"><ele>0</ele>
	<name>Brimsdown</name><desc>Source: Wikipedia article Brimsdown</desc><cmt>Source: Wikipedia article Brimsdown</cmt></wpt><wpt lat="51.3866" lon="-0.107"><ele>0</ele>
	<name>Broad Green, London</name><desc>Source: Wikipedia article Broad Green, London</desc><cmt>Source: Wikipedia article Broad Green, London</cmt></wpt><wpt lat="51.6268" lon="-0.2732"><ele>0</ele>
	<name>Broadfields Estate</name><desc>Source: Wikipedia article Broadfields Estate</desc><cmt>Source: Wikipedia article Broadfields Estate</cmt></wpt><wpt lat="51.5946" lon="-0.0822"><ele>0</ele>
	<name>Broadwater Farm</name><desc>Source: Wikipedia article Broadwater Farm</desc><cmt>Source: Wikipedia article Broadwater Farm</cmt></wpt><wpt lat="51.4938" lon="0.0853"><ele>0</ele>
	<name>Broadwater Green</name><desc>Source: Wikipedia article Broadwater Green</desc><cmt>Source: Wikipedia article Broadwater Green</cmt></wpt><wpt lat="51.4529" lon="-0.0345"><ele>0</ele>
	<name>Brockley</name><desc>Source: Wikipedia article Brockley</desc><cmt>Source: Wikipedia article Brockley</cmt></wpt><wpt lat="51.63" lon="-0.3"><ele>0</ele>
	<name>Brockley Hill</name><desc>Source: Wikipedia article Brockley Hill</desc><cmt>Source: Wikipedia article Brockley Hill</cmt></wpt><wpt lat="51.407" lon="0.021"><ele>0</ele>
	<name>Bromley</name><desc>Source: Wikipedia article Bromley</desc><cmt>Source: Wikipedia article Bromley</cmt></wpt><wpt lat="51.5246" lon="-0.017"><ele>0</ele>
	<name>Bromley-by-Bow</name><desc>Source: Wikipedia article Bromley-by-Bow</desc><cmt>Source: Wikipedia article Bromley-by-Bow</cmt></wpt><wpt lat="51.3841" lon="0.0349"><ele>0</ele>
	<name>Bromley Common</name><desc>Source: Wikipedia article Bromley Common</desc><cmt>Source: Wikipedia article Bromley Common</cmt></wpt><wpt lat="51.495" lon="-0.164"><ele>0</ele>
	<name>Brompton, London</name><desc>Source: Wikipedia article Brompton, London</desc><cmt>Source: Wikipedia article Brompton, London</cmt></wpt><wpt lat="51.54567" lon="-0.20597"><ele>0</ele>
	<name>Brondesbury</name><desc>Source: Wikipedia article Brondesbury</desc><cmt>Source: Wikipedia article Brondesbury</cmt></wpt><wpt lat="51.539" lon="-0.21"><ele>0</ele>
	<name>Brondesbury Park</name><desc>Source: Wikipedia article Brondesbury Park</desc><cmt>Source: Wikipedia article Brondesbury Park</cmt></wpt><wpt lat="51.4964" lon="-0.2205"><ele>0</ele>
	<name>Brook Green</name><desc>Source: Wikipedia article Brook Green</desc><cmt>Source: Wikipedia article Brook Green</cmt></wpt><wpt lat="51.626" lon="-0.148"><ele>0</ele>
	<name>Brunswick Park</name><desc>Source: Wikipedia article Brunswick Park</desc><cmt>Source: Wikipedia article Brunswick Park</cmt></wpt><wpt lat="51.67815" lon="-0.059325"><ele>0</ele>
	<name>Bulls Cross</name><desc>Source: Wikipedia article Bulls Cross</desc><cmt>Source: Wikipedia article Bulls Cross</cmt></wpt><wpt lat="51.675941" lon="-0.04735"><ele>0</ele>
	<name>Bullsmoor</name><desc>Source: Wikipedia article Bullsmoor</desc><cmt>Source: Wikipedia article Bullsmoor</cmt></wpt><wpt lat="51.5102777777778" lon="-0.141388888888889"><ele>0</ele>
	<name>Burlington Estate</name><desc>Source: Wikipedia article Burlington Estate</desc><cmt>Source: Wikipedia article Burlington Estate</cmt></wpt><wpt lat="51.6093" lon="-0.2588"><ele>0</ele>
	<name>Burnt Oak</name><desc>Source: Wikipedia article Burnt Oak</desc><cmt>Source: Wikipedia article Burnt Oak</cmt></wpt><wpt lat="51.6429" lon="-0.0736"><ele>0</ele>
	<name>Bush Hill Park</name><desc>Source: Wikipedia article Bush Hill Park</desc><cmt>Source: Wikipedia article Bush Hill Park</cmt></wpt><wpt lat="51.408415" lon="-0.22301"><ele>0</ele>
	<name>Bushey Mead</name><desc>Source: Wikipedia article Bushey Mead</desc><cmt>Source: Wikipedia article Bushey Mead</cmt></wpt><wpt lat="51.5679" lon="0.0147"><ele>0</ele>
	<name>Bushwood, Leytonstone</name><desc>Source: Wikipedia article Bushwood, Leytonstone</desc><cmt>Source: Wikipedia article Bushwood, Leytonstone</cmt></wpt><wpt lat="51.4736" lon="-0.0912"><ele>0</ele>
	<name>Camberwell</name><desc>Source: Wikipedia article Camberwell</desc><cmt>Source: Wikipedia article Camberwell</cmt></wpt><wpt lat="51.5315" lon="-0.05566"><ele>0</ele>
	<name>Cambridge Heath</name><desc>Source: Wikipedia article Cambridge Heath</desc><cmt>Source: Wikipedia article Cambridge Heath</cmt></wpt><wpt lat="51.541" lon="-0.1433"><ele>0</ele>
	<name>Camden Town</name><desc>Source: Wikipedia article Camden Town</desc><cmt>Source: Wikipedia article Camden Town</cmt></wpt><wpt lat="51.505" lon="-0.022"><ele>0</ele>
	<name>Canary Wharf</name><desc>Source: Wikipedia article Canary Wharf</desc><cmt>Source: Wikipedia article Canary Wharf</cmt></wpt><wpt lat="51.4172" lon="-0.3015"><ele>0</ele>
	<name>Canbury</name><desc>Source: Wikipedia article Canbury</desc><cmt>Source: Wikipedia article Canbury</cmt></wpt><wpt lat="51.558" lon="0.012"><ele>0</ele>
	<name>Cann Hall</name><desc>Source: Wikipedia article Cann Hall</desc><cmt>Source: Wikipedia article Cann Hall</cmt></wpt><wpt lat="51.515" lon="0.026"><ele>0</ele>
	<name>Canning Town</name><desc>Source: Wikipedia article Canning Town</desc><cmt>Source: Wikipedia article Canning Town</cmt></wpt><wpt lat="51.400544" lon="-0.217431"><ele>0</ele>
	<name>Cannon Hill, Merton</name><desc>Source: Wikipedia article Cannon Hill, Merton</desc><cmt>Source: Wikipedia article Cannon Hill, Merton</cmt></wpt><wpt lat="51.5437" lon="-0.0883"><ele>0</ele>
	<name>Canonbury</name><desc>Source: Wikipedia article Canonbury</desc><cmt>Source: Wikipedia article Canonbury</cmt></wpt><wpt lat="51.6093" lon="-0.2884"><ele>0</ele>
	<name>Canons Park</name><desc>Source: Wikipedia article Canons Park</desc><cmt>Source: Wikipedia article Canons Park</cmt></wpt><wpt lat="51.3652" lon="-0.1676"><ele>0</ele>
	<name>Carshalton</name><desc>Source: Wikipedia article Carshalton</desc><cmt>Source: Wikipedia article Carshalton</cmt></wpt><wpt lat="51.486" lon="-0.233"><ele>0</ele>
	<name>Castelnau, London</name><desc>Source: Wikipedia article Castelnau, London</desc><cmt>Source: Wikipedia article Castelnau, London</cmt></wpt><wpt lat="51.533328" lon="0.122395"><ele>0</ele>
	<name>Castle Green, London</name><desc>Source: Wikipedia article Castle Green, London</desc><cmt>Source: Wikipedia article Castle Green, London</cmt></wpt><wpt lat="51.4452" lon="-0.0207"><ele>0</ele>
	<name>Catford</name><desc>Source: Wikipedia article Catford</desc><cmt>Source: Wikipedia article Catford</cmt></wpt><wpt lat="51.5073" lon="0.1275"><ele>0</ele>
	<name>Central London</name><desc>Source: Wikipedia article Central London</desc><cmt>Source: Wikipedia article Central London</cmt></wpt><wpt lat="51.5757" lon="0.144"><ele>0</ele>
	<name>Chadwell Heath</name><desc>Source: Wikipedia article Chadwell Heath</desc><cmt>Source: Wikipedia article Chadwell Heath</cmt></wpt><wpt lat="51.544" lon="-0.152"><ele>0</ele>
	<name>Chalk Farm</name><desc>Source: Wikipedia article Chalk Farm</desc><cmt>Source: Wikipedia article Chalk Farm</cmt></wpt><wpt lat="51.5073" lon="-0.12755"><ele>0</ele>
	<name>Charing Cross</name><desc>Source: Wikipedia article Charing Cross</desc><cmt>Source: Wikipedia article Charing Cross</cmt></wpt><wpt lat="51.487674" lon="0.038992"><ele>0</ele>
	<name>Charlton, London</name><desc>Source: Wikipedia article Charlton, London</desc><cmt>Source: Wikipedia article Charlton, London</cmt></wpt><wpt lat="51.491939" lon="0.037658"><ele>0</ele>
	<name>Charlton Riverside</name><desc>Source: Wikipedia article Charlton Riverside</desc><cmt>Source: Wikipedia article Charlton Riverside</cmt></wpt><wpt lat="51.601373" lon="0.174419"><ele>0</ele>
	<name>Chase Cross</name><desc>Source: Wikipedia article Chase Cross</desc><cmt>Source: Wikipedia article Chase Cross</cmt></wpt><wpt lat="51.36" lon="-0.21"><ele>0</ele>
	<name>Cheam</name><desc>Source: Wikipedia article Cheam</desc><cmt>Source: Wikipedia article Cheam</cmt></wpt><wpt lat="51.47333" lon="-0.18001"><ele>0</ele>
	<name>Chelsea Harbour</name><desc>Source: Wikipedia article Chelsea Harbour</desc><cmt>Source: Wikipedia article Chelsea Harbour</cmt></wpt><wpt lat="51.358155" lon="0.1278"><ele>0</ele>
	<name>Chelsfield</name><desc>Source: Wikipedia article Chelsfield</desc><cmt>Source: Wikipedia article Chelsfield</cmt></wpt><wpt lat="51.3635" lon="-0.2998"><ele>0</ele>
	<name>Chessington</name><desc>Source: Wikipedia article Chessington</desc><cmt>Source: Wikipedia article Chessington</cmt></wpt><wpt lat="51.5111111111111" lon="-0.131388888888889"><ele>0</ele>
	<name>Chinatown, London</name><desc>Source: Wikipedia article Chinatown, London</desc><cmt>Source: Wikipedia article Chinatown, London</cmt></wpt><wpt lat="51.4316" lon="0.0314"><ele>0</ele>
	<name>Chinbrook</name><desc>Source: Wikipedia article Chinbrook</desc><cmt>Source: Wikipedia article Chinbrook</cmt></wpt><wpt lat="51.631" lon="0.016"><ele>0</ele>
	<name>Chingford</name><desc>Source: Wikipedia article Chingford</desc><cmt>Source: Wikipedia article Chingford</cmt></wpt><wpt lat="51.617977" lon="0.00383"><ele>0</ele>
	<name>Chingford Hatch</name><desc>Source: Wikipedia article Chingford Hatch</desc><cmt>Source: Wikipedia article Chingford Hatch</cmt></wpt><wpt lat="51.618656" lon="-0.017188"><ele>0</ele>
	<name>Chingford Mount</name><desc>Source: Wikipedia article Chingford Mount</desc><cmt>Source: Wikipedia article Chingford Mount</cmt></wpt><wpt lat="51.412" lon="0.075"><ele>0</ele>
	<name>Chislehurst</name><desc>Source: Wikipedia article Chislehurst</desc><cmt>Source: Wikipedia article Chislehurst</cmt></wpt><wpt lat="51.4925" lon="-0.2633"><ele>0</ele>
	<name>Chiswick</name><desc>Source: Wikipedia article Chiswick</desc><cmt>Source: Wikipedia article Chiswick</cmt></wpt><wpt lat="51.546" lon="-0.251"><ele>0</ele>
	<name>Church End, Brent</name><desc>Source: Wikipedia article Church End, Brent</desc><cmt>Source: Wikipedia article Church End, Brent</cmt></wpt><wpt lat="51.6021" lon="-0.1927"><ele>0</ele>
	<name>Church End, Finchley</name><desc>Source: Wikipedia article Church End, Finchley</desc><cmt>Source: Wikipedia article Church End, Finchley</cmt></wpt><wpt lat="51.46" lon="-0.14"><ele>0</ele>
	<name>Clapham</name><desc>Source: Wikipedia article Clapham</desc><cmt>Source: Wikipedia article Clapham</cmt></wpt><wpt lat="51.455598" lon="-0.138584"><ele>0</ele>
	<name>Clapham Park</name><desc>Source: Wikipedia article Clapham Park</desc><cmt>Source: Wikipedia article Clapham Park</cmt></wpt><wpt lat="51.5702" lon="-0.0583"><ele>0</ele>
	<name>Clapton, Hackney</name><desc>Source: Wikipedia article Clapton, Hackney</desc><cmt>Source: Wikipedia article Clapton, Hackney</cmt></wpt><wpt lat="51.672633" lon="-0.084213"><ele>0</ele>
	<name>Clay Hill, London</name><desc>Source: Wikipedia article Clay Hill, London</desc><cmt>Source: Wikipedia article Clay Hill, London</cmt></wpt><wpt lat="51.52604" lon="-0.103475"><ele>0</ele>
	<name>Clerkenwell</name><desc>Source: Wikipedia article Clerkenwell</desc><cmt>Source: Wikipedia article Clerkenwell</cmt></wpt><wpt lat="51.6527" lon="-0.156"><ele>0</ele>
	<name>Cockfosters</name><desc>Source: Wikipedia article Cockfosters</desc><cmt>Source: Wikipedia article Cockfosters</cmt></wpt><wpt lat="51.436492" lon="0.165305"><ele>0</ele>
	<name>Coldblow</name><desc>Source: Wikipedia article Coldblow</desc><cmt>Source: Wikipedia article Coldblow</cmt></wpt><wpt lat="51.4913" lon="0.1882"><ele>0</ele>
	<name>Coldharbour, Havering</name><desc>Source: Wikipedia article Coldharbour, Havering</desc><cmt>Source: Wikipedia article Coldharbour, Havering</cmt></wpt><wpt lat="51.5028" lon="-0.0075"><ele>0</ele>
	<name>Coldharbour, Tower Hamlets</name><desc>Source: Wikipedia article Coldharbour, Tower Hamlets</desc><cmt>Source: Wikipedia article Coldharbour, Tower Hamlets</cmt></wpt><wpt lat="51.4312" lon="0.05209"><ele>0</ele>
	<name>Coldharbour Estate</name><desc>Source: Wikipedia article Coldharbour Estate</desc><cmt>Source: Wikipedia article Coldharbour Estate</cmt></wpt><wpt lat="51.593" lon="-0.2479"><ele>0</ele>
	<name>Colindale</name><desc>Source: Wikipedia article Colindale</desc><cmt>Source: Wikipedia article Colindale</cmt></wpt><wpt lat="51.527" lon="-0.233"><ele>0</ele>
	<name>College Park, London</name><desc>Source: Wikipedia article College Park, London</desc><cmt>Source: Wikipedia article College Park, London</cmt></wpt><wpt lat="51.5931" lon="0.1736"><ele>0</ele>
	<name>Collier Row</name><desc>Source: Wikipedia article Collier Row</desc><cmt>Source: Wikipedia article Collier Row</cmt></wpt><wpt lat="51.4191" lon="-0.1677"><ele>0</ele>
	<name>Colliers Wood</name><desc>Source: Wikipedia article Colliers Wood</desc><cmt>Source: Wikipedia article Colliers Wood</cmt></wpt><wpt lat="51.61054" lon="-0.15575"><ele>0</ele>
	<name>Colney Hatch</name><desc>Source: Wikipedia article Colney Hatch</desc><cmt>Source: Wikipedia article Colney Hatch</cmt></wpt><wpt lat="51.3699" lon="0.0016"><ele>0</ele>
	<name>Coney Hall</name><desc>Source: Wikipedia article Coney Hall</desc><cmt>Source: Wikipedia article Coney Hall</cmt></wpt><wpt lat="51.3636111111111" lon="-0.0713888888888889"><ele>0</ele>
	<name>Coombe, Croydon</name><desc>Source: Wikipedia article Coombe, Croydon</desc><cmt>Source: Wikipedia article Coombe, Croydon</cmt></wpt><wpt lat="51.3623611111111" lon="-0.0713611111111111"><ele>0</ele>
	<name>Coombe, Croydon</name><desc>Source: Wikipedia article Coombe, Croydon</desc><cmt>Source: Wikipedia article Coombe, Croydon</cmt></wpt><wpt lat="51.3620833333333" lon="-0.0676388888888889"><ele>0</ele>
	<name>Coombe, Croydon</name><desc>Source: Wikipedia article Coombe, Croydon</desc><cmt>Source: Wikipedia article Coombe, Croydon</cmt></wpt><wpt lat="51.3633" lon="-0.0696"><ele>0</ele>
	<name>Coombe, Croydon</name><desc>Source: Wikipedia article Coombe, Croydon</desc><cmt>Source: Wikipedia article Coombe, Croydon</cmt></wpt><wpt lat="51.41885" lon="-0.26415"><ele>0</ele>
	<name>Coombe, Kingston upon Thames</name><desc>Source: Wikipedia article Coombe, Kingston upon Thames</desc><cmt>Source: Wikipedia article Coombe, Kingston upon Thames</cmt></wpt><wpt lat="51.418225" lon="-0.233234"><ele>0</ele>
	<name>Copse Hill</name><desc>Source: Wikipedia article Copse Hill</desc><cmt>Source: Wikipedia article Copse Hill</cmt></wpt><wpt lat="51.414505" lon="-0.236946"><ele>0</ele>
	<name>Cottenham Park</name><desc>Source: Wikipedia article Cottenham Park</desc><cmt>Source: Wikipedia article Cottenham Park</cmt></wpt><wpt lat="51.3211" lon="-0.1386"><ele>0</ele>
	<name>Coulsdon</name><desc>Source: Wikipedia article Coulsdon</desc><cmt>Source: Wikipedia article Coulsdon</cmt></wpt><wpt lat="51.5194444444444" lon="-0.489722222222222"><ele>0</ele>
	<name>Little Britain Lake</name><desc>Source: Wikipedia article Cowley, London</desc><cmt>Source: Wikipedia article Cowley, London</cmt></wpt><wpt lat="51.528" lon="-0.481"><ele>0</ele>
	<name>Cowley, London</name><desc>Source: Wikipedia article Cowley, London</desc><cmt>Source: Wikipedia article Cowley, London</cmt></wpt><wpt lat="51.568001" lon="0.065532"><ele>0</ele>
	<name>Cranbrook, London</name><desc>Source: Wikipedia article Cranbrook, London</desc><cmt>Source: Wikipedia article Cranbrook, London</cmt></wpt><wpt lat="51.4766" lon="-0.4079"><ele>0</ele>
	<name>Cranford, London</name><desc>Source: Wikipedia article Cranford, London</desc><cmt>Source: Wikipedia article Cranford, London</cmt></wpt><wpt lat="51.561978" lon="0.268006"><ele>0</ele>
	<name>Cranham</name><desc>Source: Wikipedia article Cranham</desc><cmt>Source: Wikipedia article Cranham</cmt></wpt><wpt lat="51.4491" lon="0.1812"><ele>0</ele>
	<name>Crayford</name><desc>Source: Wikipedia article Crayford</desc><cmt>Source: Wikipedia article Crayford</cmt></wpt><wpt lat="51.5169" lon="0.0991"><ele>0</ele>
	<name>Creekmouth</name><desc>Source: Wikipedia article Creekmouth</desc><cmt>Source: Wikipedia article Creekmouth</cmt></wpt><wpt lat="51.678" lon="-0.097"><ele>0</ele>
	<name>Crews Hill</name><desc>Source: Wikipedia article Crews Hill</desc><cmt>Source: Wikipedia article Crews Hill</cmt></wpt><wpt lat="51.5548" lon="-0.2176"><ele>0</ele>
	<name>Cricklewood</name><desc>Source: Wikipedia article Cricklewood</desc><cmt>Source: Wikipedia article Cricklewood</cmt></wpt><wpt lat="51.375" lon="0.081"><ele>0</ele>
	<name>Crofton, London</name><desc>Source: Wikipedia article Crofton, London</desc><cmt>Source: Wikipedia article Crofton, London</cmt></wpt><wpt lat="51.4523" lon="-0.0333"><ele>0</ele>
	<name>Crofton Park</name><desc>Source: Wikipedia article Crofton Park</desc><cmt>Source: Wikipedia article Crofton Park</cmt></wpt><wpt lat="51.459" lon="0.128"><ele>0</ele>
	<name>Crook Log</name><desc>Source: Wikipedia article Crook Log</desc><cmt>Source: Wikipedia article Crook Log</cmt></wpt><wpt lat="51.4213888888889" lon="-0.2275"><ele>0</ele>
	<name>Crooked Billet</name><desc>Source: Wikipedia article Crooked Billet</desc><cmt>Source: Wikipedia article Crooked Billet</cmt></wpt><wpt lat="51.508288" lon="0.138295"><ele>0</ele>
	<name>Crossness</name><desc>Source: Wikipedia article Crossness</desc><cmt>Source: Wikipedia article Crossness</cmt></wpt><wpt lat="51.579712" lon="-0.123729"><ele>0</ele>
	<name>Crouch End</name><desc>Source: Wikipedia article Crouch End</desc><cmt>Source: Wikipedia article Crouch End</cmt></wpt><wpt lat="51.3727" lon="-0.1099"><ele>0</ele>
	<name>Croydon</name><desc>Source: Wikipedia article Croydon</desc><cmt>Source: Wikipedia article Croydon</cmt></wpt><wpt lat="51.4203" lon="-0.0705"><ele>0</ele>
	<name>Crystal Palace, London</name><desc>Source: Wikipedia article Crystal Palace, London</desc><cmt>Source: Wikipedia article Crystal Palace, London</cmt></wpt><wpt lat="51.49748" lon="-0.00616"><ele>0</ele>
	<name>Cubitt Town</name><desc>Source: Wikipedia article Cubitt Town</desc><cmt>Source: Wikipedia article Cubitt Town</cmt></wpt><wpt lat="51.5076" lon="0.0297"><ele>0</ele>
	<name>Custom House, London</name><desc>Source: Wikipedia article Custom House, London</desc><cmt>Source: Wikipedia article Custom House, London</cmt></wpt><wpt lat="51.508983" lon="0.064223"><ele>0</ele>
	<name>Cyprus, London</name><desc>Source: Wikipedia article Cyprus, London</desc><cmt>Source: Wikipedia article Cyprus, London</cmt></wpt><wpt lat="51.5397" lon="0.1422"><ele>0</ele>
	<name>Dagenham</name><desc>Source: Wikipedia article Dagenham</desc><cmt>Source: Wikipedia article Dagenham</cmt></wpt><wpt lat="51.525353" lon="0.143144"><ele>0</ele>
	<name>Dagenham Dock</name><desc>Source: Wikipedia article Dagenham Dock</desc><cmt>Source: Wikipedia article Dagenham Dock</cmt></wpt><wpt lat="51.545" lon="-0.07"><ele>0</ele>
	<name>Dalston</name><desc>Source: Wikipedia article Dalston</desc><cmt>Source: Wikipedia article Dalston</cmt></wpt><wpt lat="51.559" lon="-0.1425"><ele>0</ele>
	<name>Dartmouth Park</name><desc>Source: Wikipedia article Dartmouth Park</desc><cmt>Source: Wikipedia article Dartmouth Park</cmt></wpt><wpt lat="51.5437" lon="-0.0805"><ele>0</ele>
	<name>De Beauvoir Town</name><desc>Source: Wikipedia article De Beauvoir Town</desc><cmt>Source: Wikipedia article De Beauvoir Town</cmt></wpt><wpt lat="51.4678" lon="-0.0902"><ele>0</ele>
	<name>Denmark Hill</name><desc>Source: Wikipedia article Denmark Hill</desc><cmt>Source: Wikipedia article Denmark Hill</cmt></wpt><wpt lat="51.497" lon="-0.132"><ele>0</ele>
	<name>Devil's Acre</name><desc>Source: Wikipedia article Devil's Acre</desc><cmt>Source: Wikipedia article Devil's Acre</cmt></wpt><wpt lat="51.5641" lon="-0.2341"><ele>0</ele>
	<name>Dollis Hill</name><desc>Source: Wikipedia article Dollis Hill</desc><cmt>Source: Wikipedia article Dollis Hill</cmt></wpt><wpt lat="51.516" lon="-0.364"><ele>0</ele>
	<name>Dormers Wells</name><desc>Source: Wikipedia article Dormers Wells</desc><cmt>Source: Wikipedia article Dormers Wells</cmt></wpt><wpt lat="51.3359" lon="0.0535"><ele>0</ele>
	<name>Downe</name><desc>Source: Wikipedia article Downe</desc><cmt>Source: Wikipedia article Downe</cmt></wpt><wpt lat="51.4257" lon="0.0058"><ele>0</ele>
	<name>Downham</name><desc>Source: Wikipedia article Downham</desc><cmt>Source: Wikipedia article Downham</cmt></wpt><wpt lat="51.589084" lon="-0.097842"><ele>0</ele>
	<name>Duckett's Green</name><desc>Source: Wikipedia article Duckett's Green</desc><cmt>Source: Wikipedia article Duckett's Green</cmt></wpt><wpt lat="51.4457" lon="-0.0779"><ele>0</ele>
	<name>Dulwich</name><desc>Source: Wikipedia article Dulwich</desc><cmt>Source: Wikipedia article Dulwich</cmt></wpt><wpt lat="51.447508" lon="-0.085595"><ele>0</ele>
	<name>Dulwich Village</name><desc>Source: Wikipedia article Dulwich Village</desc><cmt>Source: Wikipedia article Dulwich Village</cmt></wpt><wpt lat="51.3672222222222" lon="-0.109722222222222"><ele>0</ele>
	<name>Duppas Hill</name><desc>Source: Wikipedia article Duppas Hill</desc><cmt>Source: Wikipedia article Duppas Hill</cmt></wpt><wpt lat="51.5175" lon="-0.2988"><ele>0</ele>
	<name>Ealing</name><desc>Source: Wikipedia article Ealing</desc><cmt>Source: Wikipedia article Ealing</cmt></wpt><wpt lat="51.490616" lon="-0.195848"><ele>0</ele>
	<name>Earl's Court</name><desc>Source: Wikipedia article Earl's Court</desc><cmt>Source: Wikipedia article Earl's Court</cmt></wpt><wpt lat="51.4439" lon="-0.1854"><ele>0</ele>
	<name>Earlsfield</name><desc>Source: Wikipedia article Earlsfield</desc><cmt>Source: Wikipedia article Earlsfield</cmt></wpt><wpt lat="51.514519" lon="-0.247657"><ele>0</ele>
	<name>East Acton</name><desc>Source: Wikipedia article East Acton</desc><cmt>Source: Wikipedia article East Acton</cmt></wpt><wpt lat="51.643" lon="-0.163"><ele>0</ele>
	<name>East Barnet</name><desc>Source: Wikipedia article East Barnet</desc><cmt>Source: Wikipedia article East Barnet</cmt></wpt><wpt lat="51.462" lon="-0.084"><ele>0</ele>
	<name>East Dulwich</name><desc>Source: Wikipedia article East Dulwich</desc><cmt>Source: Wikipedia article East Dulwich</cmt></wpt><wpt lat="51.5166666666667" lon="-0.05"><ele>0</ele>
	<name>East End of London</name><desc>Source: Wikipedia article East End of London</desc><cmt>Source: Wikipedia article East End of London</cmt></wpt><wpt lat="51.59016" lon="-0.17534"><ele>0</ele>
	<name>East Finchley</name><desc>Source: Wikipedia article East Finchley</desc><cmt>Source: Wikipedia article East Finchley</cmt></wpt><wpt lat="51.5323" lon="0.0554"><ele>0</ele>
	<name>East Ham</name><desc>Source: Wikipedia article East Ham</desc><cmt>Source: Wikipedia article East Ham</cmt></wpt><wpt lat="51.553" lon="0.093"><ele>0</ele>
	<name>East London</name><desc>Source: Wikipedia article East London</desc><cmt>Source: Wikipedia article East London</cmt></wpt><wpt lat="51.464" lon="-0.266"><ele>0</ele>
	<name>East Sheen</name><desc>Source: Wikipedia article East Sheen</desc><cmt>Source: Wikipedia article East Sheen</cmt></wpt><wpt lat="51.508355" lon="-0.070821"><ele>0</ele>
	<name>East Smithfield</name><desc>Source: Wikipedia article East Smithfield</desc><cmt>Source: Wikipedia article East Smithfield</cmt></wpt><wpt lat="51.547375" lon="-0.009656"><ele>0</ele>
	<name>East Village, London</name><desc>Source: Wikipedia article East Village, London</desc><cmt>Source: Wikipedia article East Village, London</cmt></wpt><wpt lat="51.469" lon="0.096"><ele>0</ele>
	<name>East Wickham</name><desc>Source: Wikipedia article East Wickham</desc><cmt>Source: Wikipedia article East Wickham</cmt></wpt><wpt lat="51.5842" lon="-0.3897"><ele>0</ele>
	<name>Eastcote</name><desc>Source: Wikipedia article Eastcote</desc><cmt>Source: Wikipedia article Eastcote</cmt></wpt><wpt lat="51.40844" lon="-0.15396"><ele>0</ele>
	<name>Eastfields</name><desc>Source: Wikipedia article Eastfields</desc><cmt>Source: Wikipedia article Eastfields</cmt></wpt><wpt lat="51.3884" lon="-0.0243"><ele>0</ele>
	<name>Eden Park, London</name><desc>Source: Wikipedia article Eden Park, London</desc><cmt>Source: Wikipedia article Eden Park, London</cmt></wpt><wpt lat="51.6185" lon="-0.2729"><ele>0</ele>
	<name>Edgware</name><desc>Source: Wikipedia article Edgware</desc><cmt>Source: Wikipedia article Edgware</cmt></wpt><wpt lat="51.622" lon="-0.0485"><ele>0</ele>
	<name>Edmonton, London</name><desc>Source: Wikipedia article Edmonton, London</desc><cmt>Source: Wikipedia article Edmonton, London</cmt></wpt><wpt lat="51.6154" lon="-0.0708"><ele>0</ele>
	<name>Edmonton, London</name><desc>Source: Wikipedia article Edmonton, London</desc><cmt>Source: Wikipedia article Edmonton, London</cmt></wpt><wpt lat="51.4452" lon="-0.3246"><ele>0</ele>
	<name>Eel Pie Island</name><desc>Source: Wikipedia article Eel Pie Island</desc><cmt>Source: Wikipedia article Eel Pie Island</cmt></wpt><wpt lat="51.508" lon="-0.163"><ele>0</ele>
	<name>Eia</name><desc>Source: Wikipedia article Eia</desc><cmt>Source: Wikipedia article Eia</cmt></wpt><wpt lat="51.495" lon="-0.101"><ele>0</ele>
	<name>Elephant and Castle</name><desc>Source: Wikipedia article Elephant and Castle</desc><cmt>Source: Wikipedia article Elephant and Castle</cmt></wpt><wpt lat="51.5482" lon="0.1987"><ele>0</ele>
	<name>Elm Park</name><desc>Source: Wikipedia article Elm Park</desc><cmt>Source: Wikipedia article Elm Park</cmt></wpt><wpt lat="51.4155" lon="0.0501"><ele>0</ele>
	<name>Elmstead, London</name><desc>Source: Wikipedia article Elmstead, London</desc><cmt>Source: Wikipedia article Elmstead, London</cmt></wpt><wpt lat="51.451" lon="0.052"><ele>0</ele>
	<name>Eltham</name><desc>Source: Wikipedia article Eltham</desc><cmt>Source: Wikipedia article Eltham</cmt></wpt><wpt lat="51.5741" lon="0.2304"><ele>0</ele>
	<name>Emerson Park</name><desc>Source: Wikipedia article Emerson Park</desc><cmt>Source: Wikipedia article Emerson Park</cmt></wpt><wpt lat="51.65589" lon="-0.09793"><ele>0</ele>
	<name>Enfield Chase</name><desc>Source: Wikipedia article Enfield Chase</desc><cmt>Source: Wikipedia article Enfield Chase</cmt></wpt><wpt lat="51.662" lon="-0.041"><ele>0</ele>
	<name>Enfield Highway</name><desc>Source: Wikipedia article Enfield Highway</desc><cmt>Source: Wikipedia article Enfield Highway</cmt></wpt><wpt lat="51.67" lon="-0.015"><ele>0</ele>
	<name>Enfield Island Village</name><desc>Source: Wikipedia article Enfield Island Village</desc><cmt>Source: Wikipedia article Enfield Island Village</cmt></wpt><wpt lat="51.6686" lon="-0.026"><ele>0</ele>
	<name>Enfield Lock</name><desc>Source: Wikipedia article Enfield Lock</desc><cmt>Source: Wikipedia article Enfield Lock</cmt></wpt><wpt lat="51.6516" lon="-0.0837"><ele>0</ele>
	<name>Enfield Town</name><desc>Source: Wikipedia article Enfield Town</desc><cmt>Source: Wikipedia article Enfield Town</cmt></wpt><wpt lat="51.6688" lon="-0.0396"><ele>0</ele>
	<name>Enfield Wash</name><desc>Source: Wikipedia article Enfield Wash</desc><cmt>Source: Wikipedia article Enfield Wash</cmt></wpt><wpt lat="51.66" lon="0.05"><ele>0</ele>
	<name>Epping Forest</name><desc>Source: Wikipedia article Epping Forest</desc><cmt>Source: Wikipedia article Epping Forest</cmt></wpt><wpt lat="51.48" lon="0.1778"><ele>0</ele>
	<name>Erith</name><desc>Source: Wikipedia article Erith</desc><cmt>Source: Wikipedia article Erith</cmt></wpt><wpt lat="51.4596" lon="0.0953"><ele>0</ele>
	<name>Falconwood</name><desc>Source: Wikipedia article Falconwood</desc><cmt>Source: Wikipedia article Falconwood</cmt></wpt><wpt lat="51.3591" lon="0.0741"><ele>0</ele>
	<name>Farnborough, London</name><desc>Source: Wikipedia article Farnborough, London</desc><cmt>Source: Wikipedia article Farnborough, London</cmt></wpt><wpt lat="51.520905" lon="-0.103675"><ele>0</ele>
	<name>Farringdon, London</name><desc>Source: Wikipedia article Farringdon, London</desc><cmt>Source: Wikipedia article Farringdon, London</cmt></wpt><wpt lat="51.4496" lon="-0.4089"><ele>0</ele>
	<name>Feltham</name><desc>Source: Wikipedia article Feltham</desc><cmt>Source: Wikipedia article Feltham</cmt></wpt><wpt lat="51.5194444444444" lon="-0.126944444444444"><ele>0</ele>
	<name>Field of the Forty Footsteps</name><desc>Source: Wikipedia article Field of the Forty Footsteps</desc><cmt>Source: Wikipedia article Field of the Forty Footsteps</cmt></wpt><wpt lat="51.599" lon="-0.187"><ele>0</ele>
	<name>Finchley</name><desc>Source: Wikipedia article Finchley</desc><cmt>Source: Wikipedia article Finchley</cmt></wpt><wpt lat="51.52603" lon="-0.10347"><ele>0</ele>
	<name>Finsbury</name><desc>Source: Wikipedia article Finsbury</desc><cmt>Source: Wikipedia article Finsbury</cmt></wpt><wpt lat="51.5683" lon="-0.1031"><ele>0</ele>
	<name>Finsbury Park (area)</name><desc>Source: Wikipedia article Finsbury Park (area)</desc><cmt>Source: Wikipedia article Finsbury Park (area)</cmt></wpt><wpt lat="51.518" lon="-0.136"><ele>0</ele>
	<name>Fitzrovia</name><desc>Source: Wikipedia article Fitzrovia</desc><cmt>Source: Wikipedia article Fitzrovia</cmt></wpt><wpt lat="51.416" lon="0.115"><ele>0</ele>
	<name>Foots Cray</name><desc>Source: Wikipedia article Foots Cray</desc><cmt>Source: Wikipedia article Foots Cray</cmt></wpt><wpt lat="51.550832" lon="0.02739"><ele>0</ele>
	<name>Forest Gate</name><desc>Source: Wikipedia article Forest Gate</desc><cmt>Source: Wikipedia article Forest Gate</cmt></wpt><wpt lat="51.439189" lon="-0.054063"><ele>0</ele>
	<name>Forest Hill, London</name><desc>Source: Wikipedia article Forest Hill, London</desc><cmt>Source: Wikipedia article Forest Hill, London</cmt></wpt><wpt lat="51.345" lon="-0.038"><ele>0</ele>
	<name>Forestdale, London</name><desc>Source: Wikipedia article Forestdale, London</desc><cmt>Source: Wikipedia article Forestdale, London</cmt></wpt><wpt lat="51.59" lon="-0.162"><ele>0</ele>
	<name>Fortis Green</name><desc>Source: Wikipedia article Fortis Green</desc><cmt>Source: Wikipedia article Fortis Green</cmt></wpt><wpt lat="51.665748" lon="-0.067274"><ele>0</ele>
	<name>Forty Hill</name><desc>Source: Wikipedia article Forty Hill</desc><cmt>Source: Wikipedia article Forty Hill</cmt></wpt><wpt lat="51.5194" lon="-0.0721"><ele>0</ele>
	<name>Fournier Street</name><desc>Source: Wikipedia article Fournier Street</desc><cmt>Source: Wikipedia article Fournier Street</cmt></wpt><wpt lat="51.6783" lon="-0.031"><ele>0</ele>
	<name>Freezywater</name><desc>Source: Wikipedia article Freezywater</desc><cmt>Source: Wikipedia article Freezywater</cmt></wpt><wpt lat="51.6759" lon="-0.0306"><ele>0</ele>
	<name>Freezywater</name><desc>Source: Wikipedia article Freezywater</desc><cmt>Source: Wikipedia article Freezywater</cmt></wpt><wpt lat="51.625956" lon="0.007854"><ele>0</ele>
	<name>Friday Hill, London</name><desc>Source: Wikipedia article Friday Hill, London</desc><cmt>Source: Wikipedia article Friday Hill, London</cmt></wpt><wpt lat="51.553172" lon="-0.181249"><ele>0</ele>
	<name>Frognal</name><desc>Source: Wikipedia article Frognal</desc><cmt>Source: Wikipedia article Frognal</cmt></wpt><wpt lat="51.4828" lon="-0.195"><ele>0</ele>
	<name>Fulham</name><desc>Source: Wikipedia article Fulham</desc><cmt>Source: Wikipedia article Fulham</cmt></wpt><wpt lat="51.593629" lon="0.084994"><ele>0</ele>
	<name>Fullwell Cross</name><desc>Source: Wikipedia article Fullwell Cross</desc><cmt>Source: Wikipedia article Fullwell Cross</cmt></wpt><wpt lat="51.434589" lon="-0.347502"><ele>0</ele>
	<name>Fulwell, London</name><desc>Source: Wikipedia article Fulwell, London</desc><cmt>Source: Wikipedia article Fulwell, London</cmt></wpt><wpt lat="51.427" lon="-0.153"><ele>0</ele>
	<name>Furzedown</name><desc>Source: Wikipedia article Furzedown</desc><cmt>Source: Wikipedia article Furzedown</cmt></wpt><wpt lat="51.5923" lon="0.2169"><ele>0</ele>
	<name>Gallows Corner</name><desc>Source: Wikipedia article Gallows Corner</desc><cmt>Source: Wikipedia article Gallows Corner</cmt></wpt><wpt lat="51.577" lon="0.0719"><ele>0</ele>
	<name>Gants Hill</name><desc>Source: Wikipedia article Gants Hill</desc><cmt>Source: Wikipedia article Gants Hill</cmt></wpt><wpt lat="51.5926" lon="0.2025"><ele>0</ele>
	<name>Gidea Park</name><desc>Source: Wikipedia article Gidea Park</desc><cmt>Source: Wikipedia article Gidea Park</cmt></wpt><wpt lat="51.4841" lon="-0.3275"><ele>0</ele>
	<name>Gillette Corner</name><desc>Source: Wikipedia article Gillette Corner</desc><cmt>Source: Wikipedia article Gillette Corner</cmt></wpt><wpt lat="51.4229" lon="-0.0848"><ele>0</ele>
	<name>Gipsy Hill</name><desc>Source: Wikipedia article Gipsy Hill</desc><cmt>Source: Wikipedia article Gipsy Hill</cmt></wpt><wpt lat="51.366" lon="0.112"><ele>0</ele>
	<name>Goddington</name><desc>Source: Wikipedia article Goddington</desc><cmt>Source: Wikipedia article Goddington</cmt></wpt><wpt lat="51.5734" lon="-0.1982"><ele>0</ele>
	<name>Golders Green</name><desc>Source: Wikipedia article Golders Green</desc><cmt>Source: Wikipedia article Golders Green</cmt></wpt><wpt lat="51.566" lon="-0.212"><ele>0</ele>
	<name>Golders Green Estate</name><desc>Source: Wikipedia article Golders Green Estate</desc><cmt>Source: Wikipedia article Golders Green Estate</cmt></wpt><wpt lat="51.55836" lon="0.11192"><ele>0</ele>
	<name>Goodmayes</name><desc>Source: Wikipedia article Goodmayes</desc><cmt>Source: Wikipedia article Goodmayes</cmt></wpt><wpt lat="51.665018" lon="-0.087065"><ele>0</ele>
	<name>Gordon Hill, London</name><desc>Source: Wikipedia article Gordon Hill, London</desc><cmt>Source: Wikipedia article Gordon Hill, London</cmt></wpt><wpt lat="51.55376" lon="-0.14795"><ele>0</ele>
	<name>Gospel Oak</name><desc>Source: Wikipedia article Gospel Oak</desc><cmt>Source: Wikipedia article Gospel Oak</cmt></wpt><wpt lat="51.6001" lon="-0.2419"><ele>0</ele>
	<name>Grahame Park</name><desc>Source: Wikipedia article Grahame Park</desc><cmt>Source: Wikipedia article Grahame Park</cmt></wpt><wpt lat="51.445664" lon="-0.144242"><ele>0</ele>
	<name>Grange Mills</name><desc>Source: Wikipedia article Grange Mills</desc><cmt>Source: Wikipedia article Grange Mills</cmt></wpt><wpt lat="51.6493" lon="-0.103"><ele>0</ele>
	<name>Grange Park, Enfield</name><desc>Source: Wikipedia article Grange Park, Enfield</desc><cmt>Source: Wikipedia article Grange Park, Enfield</cmt></wpt><wpt lat="51.426507" lon="-0.077161"><ele>0</ele>
	<name>Great North Wood</name><desc>Source: Wikipedia article Great North Wood</desc><cmt>Source: Wikipedia article Great North Wood</cmt></wpt><wpt lat="51.350933" lon="0.088706"><ele>0</ele>
	<name>Green Street Green</name><desc>Source: Wikipedia article Green Street Green</desc><cmt>Source: Wikipedia article Green Street Green</cmt></wpt><wpt lat="51.5299" lon="-0.3488"><ele>0</ele>
	<name>Greenford</name><desc>Source: Wikipedia article Greenford</desc><cmt>Source: Wikipedia article Greenford</cmt></wpt><wpt lat="51.528" lon="0.027"><ele>0</ele>
	<name>Greengate, London</name><desc>Source: Wikipedia article Greengate, London</desc><cmt>Source: Wikipedia article Greengate, London</cmt></wpt><wpt lat="51.555" lon="-0.175"><ele>0</ele>
	<name>Greenhill, Camden</name><desc>Source: Wikipedia article Greenhill, Camden</desc><cmt>Source: Wikipedia article Greenhill, Camden</cmt></wpt><wpt lat="51.583971" lon="-0.333645"><ele>0</ele>
	<name>Greenhill, Harrow</name><desc>Source: Wikipedia article Greenhill, Harrow</desc><cmt>Source: Wikipedia article Greenhill, Harrow</cmt></wpt><wpt lat="51.48" lon="0"><ele>0</ele>
	<name>Greenwich</name><desc>Source: Wikipedia article Greenwich</desc><cmt>Source: Wikipedia article Greenwich</cmt></wpt><wpt lat="51.4836111111111" lon="-0.00583333333333333"><ele>0</ele>
	<name>Greenwich</name><desc>Source: Wikipedia article Greenwich</desc><cmt>Source: Wikipedia article Greenwich</cmt></wpt><wpt lat="51.495" lon="0.014"><ele>0</ele>
	<name>Greenwich Millennium Village</name><desc>Source: Wikipedia article Greenwich Millennium Village</desc><cmt>Source: Wikipedia article Greenwich Millennium Village</cmt></wpt><wpt lat="51.482639" lon="-0.320942"><ele>0</ele>
	<name>Grove Park, Hounslow</name><desc>Source: Wikipedia article Grove Park, Hounslow</desc><cmt>Source: Wikipedia article Grove Park, Hounslow</cmt></wpt><wpt lat="51.4313" lon="0.021"><ele>0</ele>
	<name>Grove Park, Lewisham</name><desc>Source: Wikipedia article Grove Park, Lewisham</desc><cmt>Source: Wikipedia article Grove Park, Lewisham</cmt></wpt><wpt lat="51.4927" lon="-0.2777"><ele>0</ele>
	<name>Gunnersbury</name><desc>Source: Wikipedia article Gunnersbury</desc><cmt>Source: Wikipedia article Gunnersbury</cmt></wpt><wpt lat="51.3738" lon="-0.1509"><ele>0</ele>
	<name>Hackbridge</name><desc>Source: Wikipedia article Hackbridge</desc><cmt>Source: Wikipedia article Hackbridge</cmt></wpt><wpt lat="51.543307" lon="-0.059486"><ele>0</ele>
	<name>Hackney Central</name><desc>Source: Wikipedia article Hackney Central</desc><cmt>Source: Wikipedia article Hackney Central</cmt></wpt><wpt lat="51.550818" lon="-0.06182"><ele>0</ele>
	<name>Hackney Downs</name><desc>Source: Wikipedia article Hackney Downs</desc><cmt>Source: Wikipedia article Hackney Downs</cmt></wpt><wpt lat="51.557" lon="-0.03"><ele>0</ele>
	<name>Hackney Marshes</name><desc>Source: Wikipedia article Hackney Marshes</desc><cmt>Source: Wikipedia article Hackney Marshes</cmt></wpt><wpt lat="51.542" lon="-0.023"><ele>0</ele>
	<name>Hackney Wick</name><desc>Source: Wikipedia article Hackney Wick</desc><cmt>Source: Wikipedia article Hackney Wick</cmt></wpt><wpt lat="51.544018" lon="0.231187"><ele>0</ele>
	<name>Hacton</name><desc>Source: Wikipedia article Hacton</desc><cmt>Source: Wikipedia article Hacton</cmt></wpt><wpt lat="51.66205" lon="-0.17245"><ele>0</ele>
	<name>Hadley Wood</name><desc>Source: Wikipedia article Hadley Wood</desc><cmt>Source: Wikipedia article Hadley Wood</cmt></wpt><wpt lat="51.53463" lon="-0.07663"><ele>0</ele>
	<name>Haggerston</name><desc>Source: Wikipedia article Haggerston</desc><cmt>Source: Wikipedia article Haggerston</cmt></wpt><wpt lat="51.60373" lon="0.08751"><ele>0</ele>
	<name>Hainault, London</name><desc>Source: Wikipedia article Hainault, London</desc><cmt>Source: Wikipedia article Hainault, London</cmt></wpt><wpt lat="51.605" lon="0.002"><ele>0</ele>
	<name>Hale End</name><desc>Source: Wikipedia article Hale End</desc><cmt>Source: Wikipedia article Hale End</cmt></wpt><wpt lat="51.438655" lon="-0.325586"><ele>0</ele>
	<name>Ham, London</name><desc>Source: Wikipedia article Ham, London</desc><cmt>Source: Wikipedia article Ham, London</cmt></wpt><wpt lat="51.435" lon="-0.31"><ele>0</ele>
	<name>Ham, London</name><desc>Source: Wikipedia article Ham, London</desc><cmt>Source: Wikipedia article Ham, London</cmt></wpt><wpt lat="51.5541" lon="-0.1744"><ele>0</ele>
	<name>Hampstead</name><desc>Source: Wikipedia article Hampstead</desc><cmt>Source: Wikipedia article Hampstead</cmt></wpt><wpt lat="51.583" lon="-0.185"><ele>0</ele>
	<name>Hampstead Garden Suburb</name><desc>Source: Wikipedia article Hampstead Garden Suburb</desc><cmt>Source: Wikipedia article Hampstead Garden Suburb</cmt></wpt><wpt lat="51.422" lon="-0.367"><ele>0</ele>
	<name>Hampton, London</name><desc>Source: Wikipedia article Hampton, London</desc><cmt>Source: Wikipedia article Hampton, London</cmt></wpt><wpt lat="51.433086" lon="-0.352014"><ele>0</ele>
	<name>Hampton Hill</name><desc>Source: Wikipedia article Hampton Hill</desc><cmt>Source: Wikipedia article Hampton Hill</cmt></wpt><wpt lat="51.42647" lon="-0.35592"><ele>0</ele>
	<name>Hampton Hill</name><desc>Source: Wikipedia article Hampton Hill</desc><cmt>Source: Wikipedia article Hampton Hill</cmt></wpt><wpt lat="51.415" lon="-0.31"><ele>0</ele>
	<name>Hampton Wick</name><desc>Source: Wikipedia article Hampton Wick</desc><cmt>Source: Wikipedia article Hampton Wick</cmt></wpt><wpt lat="51.5189" lon="-0.3376"><ele>0</ele>
	<name>Hanwell</name><desc>Source: Wikipedia article Hanwell</desc><cmt>Source: Wikipedia article Hanwell</cmt></wpt><wpt lat="51.431" lon="-0.381"><ele>0</ele>
	<name>Hanworth</name><desc>Source: Wikipedia article Hanworth</desc><cmt>Source: Wikipedia article Hanworth</cmt></wpt><wpt lat="51.6034" lon="-0.478"><ele>0</ele>
	<name>Harefield</name><desc>Source: Wikipedia article Harefield</desc><cmt>Source: Wikipedia article Harefield</cmt></wpt><wpt lat="51.536" lon="-0.248"><ele>0</ele>
	<name>Harlesden</name><desc>Source: Wikipedia article Harlesden</desc><cmt>Source: Wikipedia article Harlesden</cmt></wpt><wpt lat="51.4859" lon="-0.4364"><ele>0</ele>
	<name>Harlington, London</name><desc>Source: Wikipedia article Harlington, London</desc><cmt>Source: Wikipedia article Harlington, London</cmt></wpt><wpt lat="51.4865" lon="-0.4796"><ele>0</ele>
	<name>Harmondsworth</name><desc>Source: Wikipedia article Harmondsworth</desc><cmt>Source: Wikipedia article Harmondsworth</cmt></wpt><wpt lat="51.61" lon="0.2322"><ele>0</ele>
	<name>Harold Hill</name><desc>Source: Wikipedia article Harold Hill</desc><cmt>Source: Wikipedia article Harold Hill</cmt></wpt><wpt lat="51.6" lon="0.243"><ele>0</ele>
	<name>Harold Park</name><desc>Source: Wikipedia article Harold Park</desc><cmt>Source: Wikipedia article Harold Park</cmt></wpt><wpt lat="51.592" lon="0.2313"><ele>0</ele>
	<name>Harold Wood</name><desc>Source: Wikipedia article Harold Wood</desc><cmt>Source: Wikipedia article Harold Wood</cmt></wpt><wpt lat="51.5819" lon="-0.0994"><ele>0</ele>
	<name>Harringay</name><desc>Source: Wikipedia article Harringay</desc><cmt>Source: Wikipedia article Harringay</cmt></wpt><wpt lat="51.5836" lon="-0.3464"><ele>0</ele>
	<name>Harrow, London</name><desc>Source: Wikipedia article Harrow, London</desc><cmt>Source: Wikipedia article Harrow, London</cmt></wpt><wpt lat="51.5777777777778" lon="-0.366666666666667"><ele>0</ele>
	<name>Harrow Garden Village</name><desc>Source: Wikipedia article Harrow Garden Village</desc><cmt>Source: Wikipedia article Harrow Garden Village</cmt></wpt><wpt lat="51.604" lon="-0.339"><ele>0</ele>
	<name>Harrow Weald</name><desc>Source: Wikipedia article Harrow Weald</desc><cmt>Source: Wikipedia article Harrow Weald</cmt></wpt><wpt lat="51.565496" lon="-0.332716"><ele>0</ele>
	<name>Harrow on the Hill</name><desc>Source: Wikipedia article Harrow on the Hill</desc><cmt>Source: Wikipedia article Harrow on the Hill</cmt></wpt><wpt lat="51.601" lon="-0.3743"><ele>0</ele>
	<name>Hatch End</name><desc>Source: Wikipedia article Hatch End</desc><cmt>Source: Wikipedia article Hatch End</cmt></wpt><wpt lat="51.472" lon="-0.045"><ele>0</ele>
	<name>Hatcham</name><desc>Source: Wikipedia article Hatcham</desc><cmt>Source: Wikipedia article Hatcham</cmt></wpt><wpt lat="51.4678" lon="-0.4226"><ele>0</ele>
	<name>Hatton, London</name><desc>Source: Wikipedia article Hatton, London</desc><cmt>Source: Wikipedia article Hatton, London</cmt></wpt><wpt lat="51.5201166666667" lon="-0.108408333333333"><ele>0</ele>
	<name>Hatton Garden</name><desc>Source: Wikipedia article Hatton Garden</desc><cmt>Source: Wikipedia article Hatton Garden</cmt></wpt><wpt lat="51.6203" lon="0.1877"><ele>0</ele>
	<name>Havering-atte-Bower</name><desc>Source: Wikipedia article Havering-atte-Bower</desc><cmt>Source: Wikipedia article Havering-atte-Bower</cmt></wpt><wpt lat="51.54" lon="-0.16"><ele>0</ele>
	<name>Haverstock</name><desc>Source: Wikipedia article Haverstock</desc><cmt>Source: Wikipedia article Haverstock</cmt></wpt><wpt lat="51.378" lon="0.0192"><ele>0</ele>
	<name>Hayes, Bromley</name><desc>Source: Wikipedia article Hayes, Bromley</desc><cmt>Source: Wikipedia article Hayes, Bromley</cmt></wpt><wpt lat="51.5127" lon="-0.4211"><ele>0</ele>
	<name>Hayes, Hillingdon</name><desc>Source: Wikipedia article Hayes, Hillingdon</desc><cmt>Source: Wikipedia article Hayes, Hillingdon</cmt></wpt><wpt lat="51.6013" lon="-0.36324"><ele>0</ele>
	<name>Headstone, London</name><desc>Source: Wikipedia article Headstone, London</desc><cmt>Source: Wikipedia article Headstone, London</cmt></wpt><wpt lat="51.574438" lon="0.201988"><ele>0</ele>
	<name>Heath Park, Havering</name><desc>Source: Wikipedia article Heath Park, Havering</desc><cmt>Source: Wikipedia article Heath Park, Havering</cmt></wpt><wpt lat="51.4673" lon="-0.4529"><ele>0</ele>
	<name>Heathrow (hamlet)</name><desc>Source: Wikipedia article Heathrow (hamlet)</desc><cmt>Source: Wikipedia article Heathrow (hamlet)</cmt></wpt><wpt lat="51.5837" lon="-0.2252"><ele>0</ele>
	<name>Hendon</name><desc>Source: Wikipedia article Hendon</desc><cmt>Source: Wikipedia article Hendon</cmt></wpt><wpt lat="51.4544" lon="-0.0936"><ele>0</ele>
	<name>Herne Hill</name><desc>Source: Wikipedia article Herne Hill</desc><cmt>Source: Wikipedia article Herne Hill</cmt></wpt><wpt lat="51.4852" lon="-0.3788"><ele>0</ele>
	<name>Heston</name><desc>Source: Wikipedia article Heston</desc><cmt>Source: Wikipedia article Heston</cmt></wpt><wpt lat="51.6059" lon="-0.0151"><ele>0</ele>
	<name>Highams Park</name><desc>Source: Wikipedia article Highams Park</desc><cmt>Source: Wikipedia article Highams Park</cmt></wpt><wpt lat="51.552" lon="-0.097"><ele>0</ele>
	<name>Highbury</name><desc>Source: Wikipedia article Highbury</desc><cmt>Source: Wikipedia article Highbury</cmt></wpt><wpt lat="51.5716" lon="-0.1448"><ele>0</ele>
	<name>Highgate</name><desc>Source: Wikipedia article Highgate</desc><cmt>Source: Wikipedia article Highgate</cmt></wpt><wpt lat="51.5329" lon="-0.455"><ele>0</ele>
	<name>Hillingdon</name><desc>Source: Wikipedia article Hillingdon</desc><cmt>Source: Wikipedia article Hillingdon</cmt></wpt><wpt lat="51.4522" lon="0"><ele>0</ele>
	<name>Hither Green</name><desc>Source: Wikipedia article Hither Green</desc><cmt>Source: Wikipedia article Hither Green</cmt></wpt><wpt lat="51.557" lon="-0.1173"><ele>0</ele>
	<name>Holloway, London</name><desc>Source: Wikipedia article Holloway, London</desc><cmt>Source: Wikipedia article Holloway, London</cmt></wpt><wpt lat="51.55212" lon="-0.04704"><ele>0</ele>
	<name>Homerton</name><desc>Source: Wikipedia article Homerton</desc><cmt>Source: Wikipedia article Homerton</cmt></wpt><wpt lat="51.4506" lon="-0.0516"><ele>0</ele>
	<name>Honor Oak</name><desc>Source: Wikipedia article Honor Oak</desc><cmt>Source: Wikipedia article Honor Oak</cmt></wpt><wpt lat="51.447" lon="0.026"><ele>0</ele>
	<name>Horn Park</name><desc>Source: Wikipedia article Horn Park</desc><cmt>Source: Wikipedia article Horn Park</cmt></wpt><wpt lat="51.5565" lon="0.2128"><ele>0</ele>
	<name>Hornchurch</name><desc>Source: Wikipedia article Hornchurch</desc><cmt>Source: Wikipedia article Hornchurch</cmt></wpt><wpt lat="51.518" lon="0.167"><ele>0</ele>
	<name>Hornchurch Marshes</name><desc>Source: Wikipedia article Hornchurch Marshes</desc><cmt>Source: Wikipedia article Hornchurch Marshes</cmt></wpt><wpt lat="51.587131" lon="-0.12195"><ele>0</ele>
	<name>Hornsey</name><desc>Source: Wikipedia article Hornsey</desc><cmt>Source: Wikipedia article Hornsey</cmt></wpt><wpt lat="51.4668" lon="-0.375"><ele>0</ele>
	<name>Hounslow</name><desc>Source: Wikipedia article Hounslow</desc><cmt>Source: Wikipedia article Hounslow</cmt></wpt><wpt lat="51.534" lon="-0.085"><ele>0</ele>
	<name>Hoxton</name><desc>Source: Wikipedia article Hoxton</desc><cmt>Source: Wikipedia article Hoxton</cmt></wpt><wpt lat="51.558" lon="-0.4484"><ele>0</ele>
	<name>Ickenham</name><desc>Source: Wikipedia article Ickenham</desc><cmt>Source: Wikipedia article Ickenham</cmt></wpt><wpt lat="51.558807" lon="0.085459"><ele>0</ele>
	<name>Ilford</name><desc>Source: Wikipedia article Ilford</desc><cmt>Source: Wikipedia article Ilford</cmt></wpt><wpt lat="51.491" lon="-0.015"><ele>0</ele>
	<name>Isle of Dogs</name><desc>Source: Wikipedia article Isle of Dogs</desc><cmt>Source: Wikipedia article Isle of Dogs</cmt></wpt><wpt lat="51.466" lon="-0.336"><ele>0</ele>
	<name>Isleworth</name><desc>Source: Wikipedia article Isleworth</desc><cmt>Source: Wikipedia article Isleworth</cmt></wpt><wpt lat="51.544" lon="-0.1027"><ele>0</ele>
	<name>Islington</name><desc>Source: Wikipedia article Islington</desc><cmt>Source: Wikipedia article Islington</cmt></wpt><wpt lat="51.5013" lon="-0.0706"><ele>0</ele>
	<name>Jacob's Island</name><desc>Source: Wikipedia article Jacob's Island</desc><cmt>Source: Wikipedia article Jacob's Island</cmt></wpt><wpt lat="51.3242" lon="-0.0969"><ele>0</ele>
	<name>Kenley</name><desc>Source: Wikipedia article Kenley</desc><cmt>Source: Wikipedia article Kenley</cmt></wpt><wpt lat="51.4813" lon="-0.1197"><ele>0</ele>
	<name>Kennington</name><desc>Source: Wikipedia article Kennington</desc><cmt>Source: Wikipedia article Kennington</cmt></wpt><wpt lat="51.5308" lon="-0.2248"><ele>0</ele>
	<name>Kensal Green</name><desc>Source: Wikipedia article Kensal Green</desc><cmt>Source: Wikipedia article Kensal Green</cmt></wpt><wpt lat="51.524" lon="-0.21"><ele>0</ele>
	<name>Kensal Town</name><desc>Source: Wikipedia article Kensal Town</desc><cmt>Source: Wikipedia article Kensal Town</cmt></wpt><wpt lat="51.5" lon="-0.19"><ele>0</ele>
	<name>Kensington</name><desc>Source: Wikipedia article Kensington</desc><cmt>Source: Wikipedia article Kensington</cmt></wpt><wpt lat="51.5447" lon="-0.1459"><ele>0</ele>
	<name>Kentish Town</name><desc>Source: Wikipedia article Kentish Town</desc><cmt>Source: Wikipedia article Kentish Town</cmt></wpt><wpt lat="51.583" lon="-0.3032"><ele>0</ele>
	<name>Kenton, London</name><desc>Source: Wikipedia article Kenton, London</desc><cmt>Source: Wikipedia article Kenton, London</cmt></wpt><wpt lat="51.3625" lon="0.0271"><ele>0</ele>
	<name>Keston</name><desc>Source: Wikipedia article Keston</desc><cmt>Source: Wikipedia article Keston</cmt></wpt><wpt lat="51.3511068" lon="0.0299549"><ele>0</ele>
	<name>Keston</name><desc>Source: Wikipedia article Keston</desc><cmt>Source: Wikipedia article Keston</cmt></wpt><wpt lat="51.3506679" lon="0.0287962"><ele>0</ele>
	<name>Keston</name><desc>Source: Wikipedia article Keston</desc><cmt>Source: Wikipedia article Keston</cmt></wpt><wpt lat="51.4837" lon="-0.278"><ele>0</ele>
	<name>Kew</name><desc>Source: Wikipedia article Kew</desc><cmt>Source: Wikipedia article Kew</cmt></wpt><wpt lat="51.465" lon="0.033"><ele>0</ele>
	<name>Kidbrooke</name><desc>Source: Wikipedia article Kidbrooke</desc><cmt>Source: Wikipedia article Kidbrooke</cmt></wpt><wpt lat="51.5366" lon="-0.2039"><ele>0</ele>
	<name>Kilburn, London</name><desc>Source: Wikipedia article Kilburn, London</desc><cmt>Source: Wikipedia article Kilburn, London</cmt></wpt><wpt lat="51.5303" lon="-0.1236"><ele>0</ele>
	<name>Kings Cross, London</name><desc>Source: Wikipedia article Kings Cross, London</desc><cmt>Source: Wikipedia article Kings Cross, London</cmt></wpt><wpt lat="51.5826" lon="-0.2743"><ele>0</ele>
	<name>Kingsbury, London</name><desc>Source: Wikipedia article Kingsbury, London</desc><cmt>Source: Wikipedia article Kingsbury, London</cmt></wpt><wpt lat="51.543" lon="-0.079"><ele>0</ele>
	<name>Kingsland, London</name><desc>Source: Wikipedia article Kingsland, London</desc><cmt>Source: Wikipedia article Kingsland, London</cmt></wpt><wpt lat="51.4294" lon="-0.2513"><ele>0</ele>
	<name>Kingston Vale</name><desc>Source: Wikipedia article Kingston Vale</desc><cmt>Source: Wikipedia article Kingston Vale</cmt></wpt><wpt lat="51.4103" lon="-0.2995"><ele>0</ele>
	<name>Kingston upon Thames</name><desc>Source: Wikipedia article Kingston upon Thames</desc><cmt>Source: Wikipedia article Kingston upon Thames</cmt></wpt><wpt lat="51.4439" lon="-0.1"><ele>0</ele>
	<name>Knight's Hill (Tulse Hill)</name><desc>Source: Wikipedia article Knight's Hill (Tulse Hill)</desc><cmt>Source: Wikipedia article Knight's Hill (Tulse Hill)</cmt></wpt><wpt lat="51.426989" lon="-0.104907"><ele>0</ele>
	<name>Knight's Hill (West Norwood)</name><desc>Source: Wikipedia article Knight's Hill (West Norwood)</desc><cmt>Source: Wikipedia article Knight's Hill (West Norwood)</cmt></wpt><wpt lat="51.5017" lon="-0.1621"><ele>0</ele>
	<name>Knightsbridge</name><desc>Source: Wikipedia article Knightsbridge</desc><cmt>Source: Wikipedia article Knightsbridge</cmt></wpt><wpt lat="51.529" lon="-0.121"><ele>0</ele>
	<name>Knowledge Quarter, London</name><desc>Source: Wikipedia article Knowledge Quarter, London</desc><cmt>Source: Wikipedia article Knowledge Quarter, London</cmt></wpt><wpt lat="51.5165" lon="-0.2094"><ele>0</ele>
	<name>Ladbroke Grove</name><desc>Source: Wikipedia article Ladbroke Grove</desc><cmt>Source: Wikipedia article Ladbroke Grove</cmt></wpt><wpt lat="51.453" lon="-0.017"><ele>0</ele>
	<name>Ladywell</name><desc>Source: Wikipedia article Ladywell</desc><cmt>Source: Wikipedia article Ladywell</cmt></wpt><wpt lat="51.4903" lon="-0.1193"><ele>0</ele>
	<name>Lambeth</name><desc>Source: Wikipedia article Lambeth</desc><cmt>Source: Wikipedia article Lambeth</cmt></wpt><wpt lat="51.50434" lon="-0.11283"><ele>0</ele>
	<name>Lambeth Marsh</name><desc>Source: Wikipedia article Lambeth Marsh</desc><cmt>Source: Wikipedia article Lambeth Marsh</cmt></wpt><wpt lat="51.438333" lon="0.107549"><ele>0</ele>
	<name>Lamorbey</name><desc>Source: Wikipedia article Lamorbey</desc><cmt>Source: Wikipedia article Lamorbey</cmt></wpt><wpt lat="51.478109" lon="-0.363268"><ele>0</ele>
	<name>Lampton</name><desc>Source: Wikipedia article Lampton</desc><cmt>Source: Wikipedia article Lampton</cmt></wpt><wpt lat="51.5621" lon="-0.0456"><ele>0</ele>
	<name>Lea Bridge</name><desc>Source: Wikipedia article Lea Bridge</desc><cmt>Source: Wikipedia article Lea Bridge</cmt></wpt><wpt lat="51.335384" lon="0.02952"><ele>0</ele>
	<name>Leaves Green</name><desc>Source: Wikipedia article Leaves Green</desc><cmt>Source: Wikipedia article Leaves Green</cmt></wpt><wpt lat="51.4522" lon="0.0086"><ele>0</ele>
	<name>Lee, London</name><desc>Source: Wikipedia article Lee, London</desc><cmt>Source: Wikipedia article Lee, London</cmt></wpt><wpt lat="51.4857" lon="0.15177"><ele>0</ele>
	<name>Lessness Heath</name><desc>Source: Wikipedia article Lessness Heath</desc><cmt>Source: Wikipedia article Lessness Heath</cmt></wpt><wpt lat="51.461" lon="-0.005"><ele>0</ele>
	<name>Lewisham</name><desc>Source: Wikipedia article Lewisham</desc><cmt>Source: Wikipedia article Lewisham</cmt></wpt><wpt lat="51.560558" lon="-0.015465"><ele>0</ele>
	<name>Leyton</name><desc>Source: Wikipedia article Leyton</desc><cmt>Source: Wikipedia article Leyton</cmt></wpt><wpt lat="51.56425" lon="-0.01911"><ele>0</ele>
	<name>Leyton Grange</name><desc>Source: Wikipedia article Leyton Grange</desc><cmt>Source: Wikipedia article Leyton Grange</cmt></wpt><wpt lat="51.569" lon="0.01"><ele>0</ele>
	<name>Leytonstone</name><desc>Source: Wikipedia article Leytonstone</desc><cmt>Source: Wikipedia article Leytonstone</cmt></wpt><wpt lat="51.49" lon="-0.2"><ele>0</ele>
	<name>Lillie Bridge (Fulham)</name><desc>Source: Wikipedia article Lillie Bridge (Fulham)</desc><cmt>Source: Wikipedia article Lillie Bridge (Fulham)</cmt></wpt><wpt lat="51.4873" lon="-0.1961"><ele>0</ele>
	<name>Lillie Bridge (Fulham)</name><desc>Source: Wikipedia article Lillie Bridge (Fulham)</desc><cmt>Source: Wikipedia article Lillie Bridge (Fulham)</cmt></wpt><wpt lat="51.5158" lon="-0.0318"><ele>0</ele>
	<name>Limehouse</name><desc>Source: Wikipedia article Limehouse</desc><cmt>Source: Wikipedia article Limehouse</cmt></wpt><wpt lat="51.510903" lon="0.008399"><ele>0</ele>
	<name>Limmo Peninsula</name><desc>Source: Wikipedia article Limmo Peninsula</desc><cmt>Source: Wikipedia article Limmo Peninsula</cmt></wpt><wpt lat="51.55709" lon="-0.14989"><ele>0</ele>
	<name>Lissenden Gardens</name><desc>Source: Wikipedia article Lissenden Gardens</desc><cmt>Source: Wikipedia article Lissenden Gardens</cmt></wpt><wpt lat="51.52539" lon="-0.16969"><ele>0</ele>
	<name>Lisson Grove</name><desc>Source: Wikipedia article Lisson Grove</desc><cmt>Source: Wikipedia article Lisson Grove</cmt></wpt><wpt lat="51.584323" lon="0.11761"><ele>0</ele>
	<name>Little Heath, London</name><desc>Source: Wikipedia article Little Heath, London</desc><cmt>Source: Wikipedia article Little Heath, London</cmt></wpt><wpt lat="51.5509" lon="0.0549"><ele>0</ele>
	<name>Little Ilford</name><desc>Source: Wikipedia article Little Ilford</desc><cmt>Source: Wikipedia article Little Ilford</cmt></wpt><wpt lat="51.4741666666667" lon="-0.1225"><ele>0</ele>
	<name>Little Portugal, London</name><desc>Source: Wikipedia article Little Portugal, London</desc><cmt>Source: Wikipedia article Little Portugal, London</cmt></wpt><wpt lat="51.608" lon="-0.072"><ele>0</ele>
	<name>Little Russia, London</name><desc>Source: Wikipedia article Little Russia, London</desc><cmt>Source: Wikipedia article Little Russia, London</cmt></wpt><wpt lat="51.606" lon="-0.284"><ele>0</ele>
	<name>Little Stanmore</name><desc>Source: Wikipedia article Little Stanmore</desc><cmt>Source: Wikipedia article Little Stanmore</cmt></wpt><wpt lat="51.5216" lon="-0.1821"><ele>0</ele>
	<name>Little Venice, London</name><desc>Source: Wikipedia article Little Venice, London</desc><cmt>Source: Wikipedia article Little Venice, London</cmt></wpt><wpt lat="51.337598" lon="-0.159567"><ele>0</ele>
	<name>Little Woodcote</name><desc>Source: Wikipedia article Little Woodcote</desc><cmt>Source: Wikipedia article Little Woodcote</cmt></wpt><wpt lat="51.3708" lon="0.0608"><ele>0</ele>
	<name>Locksbottom</name><desc>Source: Wikipedia article Locksbottom</desc><cmt>Source: Wikipedia article Locksbottom</cmt></wpt><wpt lat="51.541104" lon="-0.059545"><ele>0</ele>
	<name>London Fields</name><desc>Source: Wikipedia article London Fields</desc><cmt>Source: Wikipedia article London Fields</cmt></wpt><wpt lat="51.4777" lon="-0.4943"><ele>0</ele>
	<name>Longford, London</name><desc>Source: Wikipedia article Longford, London</desc><cmt>Source: Wikipedia article Longford, London</cmt></wpt><wpt lat="51.4302" lon="0.0854"><ele>0</ele>
	<name>Longlands</name><desc>Source: Wikipedia article Longlands</desc><cmt>Source: Wikipedia article Longlands</cmt></wpt><wpt lat="51.4661" lon="-0.102"><ele>0</ele>
	<name>Loughborough Junction</name><desc>Source: Wikipedia article Loughborough Junction</desc><cmt>Source: Wikipedia article Loughborough Junction</cmt></wpt><wpt lat="51.550151" lon="-0.118039"><ele>0</ele>
	<name>Lower Holloway</name><desc>Source: Wikipedia article Lower Holloway</desc><cmt>Source: Wikipedia article Lower Holloway</cmt></wpt><wpt lat="51.55" lon="-0.0166666666666667"><ele>0</ele>
	<name>Lower Lea Valley</name><desc>Source: Wikipedia article Lower Lea Valley</desc><cmt>Source: Wikipedia article Lower Lea Valley</cmt></wpt><wpt lat="51.3884" lon="-0.2198"><ele>0</ele>
	<name>Lower Morden</name><desc>Source: Wikipedia article Lower Morden</desc><cmt>Source: Wikipedia article Lower Morden</cmt></wpt><wpt lat="51.54807" lon="0.08184"><ele>0</ele>
	<name>Loxford</name><desc>Source: Wikipedia article Loxford</desc><cmt>Source: Wikipedia article Loxford</cmt></wpt><wpt lat="51.5492" lon="-0.0324"><ele>0</ele>
	<name>Mabley Green</name><desc>Source: Wikipedia article Mabley Green</desc><cmt>Source: Wikipedia article Mabley Green</cmt></wpt><wpt lat="51.5274" lon="-0.1899"><ele>0</ele>
	<name>Maida Vale</name><desc>Source: Wikipedia article Maida Vale</desc><cmt>Source: Wikipedia article Maida Vale</cmt></wpt><wpt lat="51.336769" lon="-0.320285"><ele>0</ele>
	<name>Malden Rushett</name><desc>Source: Wikipedia article Malden Rushett</desc><cmt>Source: Wikipedia article Malden Rushett</cmt></wpt><wpt lat="51.57182" lon="-0.09671"><ele>0</ele>
	<name>Manor House, London</name><desc>Source: Wikipedia article Manor House, London</desc><cmt>Source: Wikipedia article Manor House, London</cmt></wpt><wpt lat="51.55033" lon="0.056219"><ele>0</ele>
	<name>Manor Park, London</name><desc>Source: Wikipedia article Manor Park, London</desc><cmt>Source: Wikipedia article Manor Park, London</cmt></wpt><wpt lat="51.5517" lon="-0.28056"><ele>0</ele>
	<name>Mapesbury</name><desc>Source: Wikipedia article Mapesbury</desc><cmt>Source: Wikipedia article Mapesbury</cmt></wpt><wpt lat="51.545" lon="-0.002"><ele>0</ele>
	<name>Maryland, London</name><desc>Source: Wikipedia article Maryland, London</desc><cmt>Source: Wikipedia article Maryland, London</cmt></wpt><wpt lat="51.5177" lon="-0.147"><ele>0</ele>
	<name>Marylebone</name><desc>Source: Wikipedia article Marylebone</desc><cmt>Source: Wikipedia article Marylebone</cmt></wpt><wpt lat="51.481209" lon="0.003669"><ele>0</ele>
	<name>Maze Hill</name><desc>Source: Wikipedia article Maze Hill</desc><cmt>Source: Wikipedia article Maze Hill</cmt></wpt><wpt lat="51.41243" lon="-0.18142"><ele>0</ele>
	<name>Merton Abbey, London</name><desc>Source: Wikipedia article Merton Abbey, London</desc><cmt>Source: Wikipedia article Merton Abbey, London</cmt></wpt><wpt lat="51.4106" lon="-0.2017"><ele>0</ele>
	<name>Merton Park</name><desc>Source: Wikipedia article Merton Park</desc><cmt>Source: Wikipedia article Merton Park</cmt></wpt><wpt lat="51.445" lon="0.04"><ele>0</ele>
	<name>Middle Park, London</name><desc>Source: Wikipedia article Middle Park, London</desc><cmt>Source: Wikipedia article Middle Park, London</cmt></wpt><wpt lat="51.5248" lon="-0.0314"><ele>0</ele>
	<name>Mile End</name><desc>Source: Wikipedia article Mile End</desc><cmt>Source: Wikipedia article Mile End</cmt></wpt><wpt lat="51.62" lon="-0.23"><ele>0</ele>
	<name>Mill Hill</name><desc>Source: Wikipedia article Mill Hill</desc><cmt>Source: Wikipedia article Mill Hill</cmt></wpt><wpt lat="51.531174" lon="-0.005515"><ele>0</ele>
	<name>Mill Meads</name><desc>Source: Wikipedia article Mill Meads</desc><cmt>Source: Wikipedia article Mill Meads</cmt></wpt><wpt lat="51.4915" lon="-0.1295"><ele>0</ele>
	<name>Millbank</name><desc>Source: Wikipedia article Millbank</desc><cmt>Source: Wikipedia article Millbank</cmt></wpt><wpt lat="51.488661" lon="-0.018589"><ele>0</ele>
	<name>Millwall</name><desc>Source: Wikipedia article Millwall</desc><cmt>Source: Wikipedia article Millwall</cmt></wpt><wpt lat="51.5108" lon="-0.0751"><ele>0</ele>
	<name>Minories</name><desc>Source: Wikipedia article Minories</desc><cmt>Source: Wikipedia article Minories</cmt></wpt><wpt lat="51.4009" lon="-0.1517"><ele>0</ele>
	<name>Mitcham, London</name><desc>Source: Wikipedia article Mitcham, London</desc><cmt>Source: Wikipedia article Mitcham, London</cmt></wpt><wpt lat="51.6624" lon="-0.199"><ele>0</ele>
	<name>Monken Hadley</name><desc>Source: Wikipedia article Monken Hadley</desc><cmt>Source: Wikipedia article Monken Hadley</cmt></wpt><wpt lat="51.617" lon="0.026"><ele>0</ele>
	<name>Monkhams</name><desc>Source: Wikipedia article Monkhams</desc><cmt>Source: Wikipedia article Monkhams</cmt></wpt><wpt lat="51.3818" lon="-0.0541"><ele>0</ele>
	<name>Monks Orchard</name><desc>Source: Wikipedia article Monks Orchard</desc><cmt>Source: Wikipedia article Monks Orchard</cmt></wpt><wpt lat="51.52306" lon="-0.30587"><ele>0</ele>
	<name>Montpelier, London</name><desc>Source: Wikipedia article Montpelier, London</desc><cmt>Source: Wikipedia article Montpelier, London</cmt></wpt><wpt lat="51.518188" lon="-0.088611"><ele>0</ele>
	<name>Moorfields</name><desc>Source: Wikipedia article Moorfields</desc><cmt>Source: Wikipedia article Moorfields</cmt></wpt><wpt lat="51.4015" lon="-0.1949"><ele>0</ele>
	<name>Morden</name><desc>Source: Wikipedia article Morden</desc><cmt>Source: Wikipedia article Morden</cmt></wpt><wpt lat="51.3936" lon="-0.2052"><ele>0</ele>
	<name>Morden Park</name><desc>Source: Wikipedia article Morden Park</desc><cmt>Source: Wikipedia article Morden Park</cmt></wpt><wpt lat="51.4655" lon="-0.2643"><ele>0</ele>
	<name>Mortlake</name><desc>Source: Wikipedia article Mortlake</desc><cmt>Source: Wikipedia article Mortlake</cmt></wpt><wpt lat="51.41" lon="-0.25"><ele>0</ele>
	<name>Motspur Park</name><desc>Source: Wikipedia article Motspur Park</desc><cmt>Source: Wikipedia article Motspur Park</cmt></wpt><wpt lat="51.4337" lon="0.0365"><ele>0</ele>
	<name>Mottingham</name><desc>Source: Wikipedia article Mottingham</desc><cmt>Source: Wikipedia article Mottingham</cmt></wpt><wpt lat="51.592" lon="-0.143"><ele>0</ele>
	<name>Muswell Hill</name><desc>Source: Wikipedia article Muswell Hill</desc><cmt>Source: Wikipedia article Muswell Hill</cmt></wpt><wpt lat="51.5552" lon="-0.2465"><ele>0</ele>
	<name>Neasden</name><desc>Source: Wikipedia article Neasden</desc><cmt>Source: Wikipedia article Neasden</cmt></wpt><wpt lat="51.3427" lon="-0.0167"><ele>0</ele>
	<name>New Addington</name><desc>Source: Wikipedia article New Addington</desc><cmt>Source: Wikipedia article New Addington</cmt></wpt><wpt lat="51.4709" lon="-0.0337"><ele>0</ele>
	<name>New Cross</name><desc>Source: Wikipedia article New Cross</desc><cmt>Source: Wikipedia article New Cross</cmt></wpt><wpt lat="51.4377" lon="0.07037"><ele>0</ele>
	<name>New Eltham</name><desc>Source: Wikipedia article New Eltham</desc><cmt>Source: Wikipedia article New Eltham</cmt></wpt><wpt lat="51.4" lon="-0.252"><ele>0</ele>
	<name>New Malden</name><desc>Source: Wikipedia article New Malden</desc><cmt>Source: Wikipedia article New Malden</cmt></wpt><wpt lat="51.6136" lon="-0.1419"><ele>0</ele>
	<name>New Southgate</name><desc>Source: Wikipedia article New Southgate</desc><cmt>Source: Wikipedia article New Southgate</cmt></wpt><wpt lat="51.5767" lon="0.0862"><ele>0</ele>
	<name>Newbury Park, London</name><desc>Source: Wikipedia article Newbury Park, London</desc><cmt>Source: Wikipedia article Newbury Park, London</cmt></wpt><wpt lat="51.4988" lon="-0.0901"><ele>0</ele>
	<name>Newington, London</name><desc>Source: Wikipedia article Newington, London</desc><cmt>Source: Wikipedia article Newington, London</cmt></wpt><wpt lat="51.582111" lon="-0.455893"><ele>0</ele>
	<name>Newyears Green</name><desc>Source: Wikipedia article Newyears Green</desc><cmt>Source: Wikipedia article Newyears Green</cmt></wpt><wpt lat="51.48" lon="-0.14"><ele>0</ele>
	<name>Nine Elms</name><desc>Source: Wikipedia article Nine Elms</desc><cmt>Source: Wikipedia article Nine Elms</cmt></wpt><wpt lat="51.619" lon="0.2327"><ele>0</ele>
	<name>Noak Hill</name><desc>Source: Wikipedia article Noak Hill</desc><cmt>Source: Wikipedia article Noak Hill</cmt></wpt><wpt lat="51.41194" lon="-0.28311"><ele>0</ele>
	<name>Norbiton</name><desc>Source: Wikipedia article Norbiton</desc><cmt>Source: Wikipedia article Norbiton</cmt></wpt><wpt lat="51.4092" lon="-0.1083"><ele>0</ele>
	<name>Norbury</name><desc>Source: Wikipedia article Norbury</desc><cmt>Source: Wikipedia article Norbury</cmt></wpt><wpt lat="51.528023" lon="-0.257668"><ele>0</ele>
	<name>North Acton</name><desc>Source: Wikipedia article North Acton</desc><cmt>Source: Wikipedia article North Acton</cmt></wpt><wpt lat="51.424" lon="0.135"><ele>0</ele>
	<name>North Cray</name><desc>Source: Wikipedia article North Cray</desc><cmt>Source: Wikipedia article North Cray</cmt></wpt><wpt lat="51.474" lon="0.177"><ele>0</ele>
	<name>North End, Bexley</name><desc>Source: Wikipedia article North End, Bexley</desc><cmt>Source: Wikipedia article North End, Bexley</cmt></wpt><wpt lat="51.4908333333333" lon="-0.206944444444444"><ele>0</ele>
	<name>North End, Fulham</name><desc>Source: Wikipedia article North End, Fulham</desc><cmt>Source: Wikipedia article North End, Fulham</cmt></wpt><wpt lat="51.617" lon="-0.174"><ele>0</ele>
	<name>North Finchley</name><desc>Source: Wikipedia article North Finchley</desc><cmt>Source: Wikipedia article North Finchley</cmt></wpt><wpt lat="51.58394" lon="-0.36324"><ele>0</ele>
	<name>North Harrow</name><desc>Source: Wikipedia article North Harrow</desc><cmt>Source: Wikipedia article North Harrow</cmt></wpt><wpt lat="51.4929" lon="-0.385401"><ele>0</ele>
	<name>North Hyde</name><desc>Source: Wikipedia article North Hyde</desc><cmt>Source: Wikipedia article North Hyde</cmt></wpt><wpt lat="51.523792" lon="-0.219598"><ele>0</ele>
	<name>North Kensington</name><desc>Source: Wikipedia article North Kensington</desc><cmt>Source: Wikipedia article North Kensington</cmt></wpt><wpt lat="51.6" lon="0.06"><ele>0</ele>
	<name>North London</name><desc>Source: Wikipedia article North London</desc><cmt>Source: Wikipedia article North London</cmt></wpt><wpt lat="51.54815" lon="0.29924"><ele>0</ele>
	<name>North Ockendon</name><desc>Source: Wikipedia article North Ockendon</desc><cmt>Source: Wikipedia article North Ockendon</cmt></wpt><wpt lat="51.474778" lon="-0.278421"><ele>0</ele>
	<name>North Sheen</name><desc>Source: Wikipedia article North Sheen</desc><cmt>Source: Wikipedia article North Sheen</cmt></wpt><wpt lat="51.556" lon="-0.3042"><ele>0</ele>
	<name>North Wembley</name><desc>Source: Wikipedia article North Wembley</desc><cmt>Source: Wikipedia article North Wembley</cmt></wpt><wpt lat="51.501" lon="0.058"><ele>0</ele>
	<name>North Woolwich</name><desc>Source: Wikipedia article North Woolwich</desc><cmt>Source: Wikipedia article North Woolwich</cmt></wpt><wpt lat="51.5" lon="-0.315"><ele>0</ele>
	<name>Northfields, London</name><desc>Source: Wikipedia article Northfields, London</desc><cmt>Source: Wikipedia article Northfields, London</cmt></wpt><wpt lat="51.547" lon="-0.362"><ele>0</ele>
	<name>Northolt</name><desc>Source: Wikipedia article Northolt</desc><cmt>Source: Wikipedia article Northolt</cmt></wpt><wpt lat="51.4727" lon="0.1679"><ele>0</ele>
	<name>Northumberland Heath</name><desc>Source: Wikipedia article Northumberland Heath</desc><cmt>Source: Wikipedia article Northumberland Heath</cmt></wpt><wpt lat="51.602" lon="-0.058"><ele>0</ele>
	<name>Northumberland Park, London</name><desc>Source: Wikipedia article Northumberland Park, London</desc><cmt>Source: Wikipedia article Northumberland Park, London</cmt></wpt><wpt lat="51.575" lon="-0.3248"><ele>0</ele>
	<name>Northwick Park</name><desc>Source: Wikipedia article Northwick Park</desc><cmt>Source: Wikipedia article Northwick Park</cmt></wpt><wpt lat="51.601" lon="-0.4176"><ele>0</ele>
	<name>Northwood, London</name><desc>Source: Wikipedia article Northwood, London</desc><cmt>Source: Wikipedia article Northwood, London</cmt></wpt><wpt lat="51.5039" lon="-0.3741"><ele>0</ele>
	<name>Norwood Green</name><desc>Source: Wikipedia article Norwood Green</desc><cmt>Source: Wikipedia article Norwood Green</cmt></wpt><wpt lat="51.42" lon="-0.092"><ele>0</ele>
	<name>Norwood New Town</name><desc>Source: Wikipedia article Norwood New Town</desc><cmt>Source: Wikipedia article Norwood New Town</cmt></wpt><wpt lat="51.5096" lon="-0.2043"><ele>0</ele>
	<name>Notting Hill</name><desc>Source: Wikipedia article Notting Hill</desc><cmt>Source: Wikipedia article Notting Hill</cmt></wpt><wpt lat="51.4622" lon="-0.0508"><ele>0</ele>
	<name>Nunhead</name><desc>Source: Wikipedia article Nunhead</desc><cmt>Source: Wikipedia article Nunhead</cmt></wpt><wpt lat="51.626" lon="-0.1716"><ele>0</ele>
	<name>Oakleigh Park</name><desc>Source: Wikipedia article Oakleigh Park</desc><cmt>Source: Wikipedia article Oakleigh Park</cmt></wpt><wpt lat="51.6146" lon="-0.1056"><ele>0</ele>
	<name>Oakthorpe Park</name><desc>Source: Wikipedia article Oakthorpe Park</desc><cmt>Source: Wikipedia article Oakthorpe Park</cmt></wpt><wpt lat="51.6433" lon="-0.1274"><ele>0</ele>
	<name>Oakwood, London</name><desc>Source: Wikipedia article Oakwood, London</desc><cmt>Source: Wikipedia article Oakwood, London</cmt></wpt><wpt lat="51.3018" lon="-0.1143"><ele>0</ele>
	<name>Old Coulsdon</name><desc>Source: Wikipedia article Old Coulsdon</desc><cmt>Source: Wikipedia article Old Coulsdon</cmt></wpt><wpt lat="51.53515" lon="-0.0218"><ele>0</ele>
	<name>Old Ford</name><desc>Source: Wikipedia article Old Ford</desc><cmt>Source: Wikipedia article Old Ford</cmt></wpt><wpt lat="51.388" lon="-0.256"><ele>0</ele>
	<name>Old Malden</name><desc>Source: Wikipedia article Old Malden</desc><cmt>Source: Wikipedia article Old Malden</cmt></wpt><wpt lat="51.5244" lon="-0.2421"><ele>0</ele>
	<name>Old Oak Common</name><desc>Source: Wikipedia article Old Oak Common</desc><cmt>Source: Wikipedia article Old Oak Common</cmt></wpt><wpt lat="51.3741" lon="0.0986"><ele>0</ele>
	<name>Orpington</name><desc>Source: Wikipedia article Orpington</desc><cmt>Source: Wikipedia article Orpington</cmt></wpt><wpt lat="51.6345" lon="-0.1423"><ele>0</ele>
	<name>Osidge</name><desc>Source: Wikipedia article Osidge</desc><cmt>Source: Wikipedia article Osidge</cmt></wpt><wpt lat="51.4848" lon="-0.35"><ele>0</ele>
	<name>Osterley</name><desc>Source: Wikipedia article Osterley</desc><cmt>Source: Wikipedia article Osterley</cmt></wpt><wpt lat="51.5172" lon="-0.173"><ele>0</ele>
	<name>Paddington</name><desc>Source: Wikipedia article Paddington</desc><cmt>Source: Wikipedia article Paddington</cmt></wpt><wpt lat="51.5204" lon="-0.17525"><ele>0</ele>
	<name>Paddington Green, London</name><desc>Source: Wikipedia article Paddington Green, London</desc><cmt>Source: Wikipedia article Paddington Green, London</cmt></wpt><wpt lat="51.6178" lon="-0.1092"><ele>0</ele>
	<name>Palmers Green</name><desc>Source: Wikipedia article Palmers Green</desc><cmt>Source: Wikipedia article Palmers Green</cmt></wpt><wpt lat="51.529088" lon="-0.281267"><ele>0</ele>
	<name>Park Royal</name><desc>Source: Wikipedia article Park Royal</desc><cmt>Source: Wikipedia article Park Royal</cmt></wpt><wpt lat="51.4738" lon="-0.1991"><ele>0</ele>
	<name>Parsons Green</name><desc>Source: Wikipedia article Parsons Green</desc><cmt>Source: Wikipedia article Parsons Green</cmt></wpt><wpt lat="51.4714" lon="-0.0625"><ele>0</ele>
	<name>Peckham</name><desc>Source: Wikipedia article Peckham</desc><cmt>Source: Wikipedia article Peckham</cmt></wpt><wpt lat="51.417" lon="-0.062"><ele>0</ele>
	<name>Penge</name><desc>Source: Wikipedia article Penge</desc><cmt>Source: Wikipedia article Penge</cmt></wpt><wpt lat="51.532" lon="-0.114"><ele>0</ele>
	<name>Pentonville</name><desc>Source: Wikipedia article Pentonville</desc><cmt>Source: Wikipedia article Pentonville</cmt></wpt><wpt lat="51.5383" lon="-0.3192"><ele>0</ele>
	<name>Perivale</name><desc>Source: Wikipedia article Perivale</desc><cmt>Source: Wikipedia article Perivale</cmt></wpt><wpt lat="51.435" lon="-0.043"><ele>0</ele>
	<name>Perry Vale</name><desc>Source: Wikipedia article Perry Vale</desc><cmt>Source: Wikipedia article Perry Vale</cmt></wpt><wpt lat="51.446358" lon="-0.303326"><ele>0</ele>
	<name>Petersham, London</name><desc>Source: Wikipedia article Petersham, London</desc><cmt>Source: Wikipedia article Petersham, London</cmt></wpt><wpt lat="51.3885" lon="0.076"><ele>0</ele>
	<name>Petts Wood</name><desc>Source: Wikipedia article Petts Wood</desc><cmt>Source: Wikipedia article Petts Wood</cmt></wpt><wpt lat="51.4887" lon="-0.1395"><ele>0</ele>
	<name>Pimlico</name><desc>Source: Wikipedia article Pimlico</desc><cmt>Source: Wikipedia article Pimlico</cmt></wpt><wpt lat="51.5932" lon="-0.3894"><ele>0</ele>
	<name>Pinner</name><desc>Source: Wikipedia article Pinner</desc><cmt>Source: Wikipedia article Pinner</cmt></wpt><wpt lat="51.526313" lon="-0.312734"><ele>0</ele>
	<name>Pitshanger</name><desc>Source: Wikipedia article Pitshanger</desc><cmt>Source: Wikipedia article Pitshanger</cmt></wpt><wpt lat="51.413369" lon="0.015561"><ele>0</ele>
	<name>Plaistow, Bromley</name><desc>Source: Wikipedia article Plaistow, Bromley</desc><cmt>Source: Wikipedia article Plaistow, Bromley</cmt></wpt><wpt lat="51.5243" lon="0.0245"><ele>0</ele>
	<name>Plaistow, Newham</name><desc>Source: Wikipedia article Plaistow, Newham</desc><cmt>Source: Wikipedia article Plaistow, Newham</cmt></wpt><wpt lat="51.541638" lon="0.045716"><ele>0</ele>
	<name>Plashet</name><desc>Source: Wikipedia article Plashet</desc><cmt>Source: Wikipedia article Plashet</cmt></wpt><wpt lat="51.48699" lon="0.07981"><ele>0</ele>
	<name>Plumstead</name><desc>Source: Wikipedia article Plumstead</desc><cmt>Source: Wikipedia article Plumstead</cmt></wpt><wpt lat="51.646" lon="-0.046"><ele>0</ele>
	<name>Ponders End</name><desc>Source: Wikipedia article Ponders End</desc><cmt>Source: Wikipedia article Ponders End</cmt></wpt><wpt lat="51.5066" lon="-0.0178"><ele>0</ele>
	<name>Poplar, London</name><desc>Source: Wikipedia article Poplar, London</desc><cmt>Source: Wikipedia article Poplar, London</cmt></wpt><wpt lat="51.5193" lon="-0.1127"><ele>0</ele>
	<name>Portpool</name><desc>Source: Wikipedia article Portpool</desc><cmt>Source: Wikipedia article Portpool</cmt></wpt><wpt lat="51.3397" lon="0.1128"><ele>0</ele>
	<name>Pratt's Bottom</name><desc>Source: Wikipedia article Pratt's Bottom</desc><cmt>Source: Wikipedia article Pratt's Bottom</cmt></wpt><wpt lat="51.570934" lon="-0.294914"><ele>0</ele>
	<name>Preston, London</name><desc>Source: Wikipedia article Preston, London</desc><cmt>Source: Wikipedia article Preston, London</cmt></wpt><wpt lat="51.5396" lon="-0.1608"><ele>0</ele>
	<name>Primrose Hill</name><desc>Source: Wikipedia article Primrose Hill</desc><cmt>Source: Wikipedia article Primrose Hill</cmt></wpt><wpt lat="51.3373" lon="-0.1141"><ele>0</ele>
	<name>Purley, London</name><desc>Source: Wikipedia article Purley, London</desc><cmt>Source: Wikipedia article Purley, London</cmt></wpt><wpt lat="51.4649" lon="-0.2211"><ele>0</ele>
	<name>Putney</name><desc>Source: Wikipedia article Putney</desc><cmt>Source: Wikipedia article Putney</cmt></wpt><wpt lat="51.44" lon="-0.242"><ele>0</ele>
	<name>Putney Vale</name><desc>Source: Wikipedia article Putney Vale</desc><cmt>Source: Wikipedia article Putney Vale</cmt></wpt><wpt lat="51.5338" lon="-0.2026"><ele>0</ele>
	<name>Queen's Park, London</name><desc>Source: Wikipedia article Queen's Park, London</desc><cmt>Source: Wikipedia article Queen's Park, London</cmt></wpt><wpt lat="51.591897" lon="-0.290767"><ele>0</ele>
	<name>Queensbury, London</name><desc>Source: Wikipedia article Queensbury, London</desc><cmt>Source: Wikipedia article Queensbury, London</cmt></wpt><wpt lat="51.5177" lon="0.1948"><ele>0</ele>
	<name>Rainham, London</name><desc>Source: Wikipedia article Rainham, London</desc><cmt>Source: Wikipedia article Rainham, London</cmt></wpt><wpt lat="51.5737" lon="-0.3735"><ele>0</ele>
	<name>Rayners Lane</name><desc>Source: Wikipedia article Rayners Lane</desc><cmt>Source: Wikipedia article Rayners Lane</cmt></wpt><wpt lat="51.4033" lon="-0.2321"><ele>0</ele>
	<name>Raynes Park</name><desc>Source: Wikipedia article Raynes Park</desc><cmt>Source: Wikipedia article Raynes Park</cmt></wpt><wpt lat="51.576" lon="0.052"><ele>0</ele>
	<name>Redbridge, London</name><desc>Source: Wikipedia article Redbridge, London</desc><cmt>Source: Wikipedia article Redbridge, London</cmt></wpt><wpt lat="51.456" lon="-0.301"><ele>0</ele>
	<name>Richmond, London</name><desc>Source: Wikipedia article Richmond, London</desc><cmt>Source: Wikipedia article Richmond, London</cmt></wpt><wpt lat="51.3313" lon="-0.0957"><ele>0</ele>
	<name>Riddlesdown</name><desc>Source: Wikipedia article Riddlesdown</desc><cmt>Source: Wikipedia article Riddlesdown</cmt></wpt><wpt lat="51.596281" lon="0.181285"><ele>0</ele>
	<name>Rise Park</name><desc>Source: Wikipedia article Rise Park</desc><cmt>Source: Wikipedia article Rise Park</cmt></wpt><wpt lat="51.451" lon="-0.243"><ele>0</ele>
	<name>Roehampton</name><desc>Source: Wikipedia article Roehampton</desc><cmt>Source: Wikipedia article Roehampton</cmt></wpt><wpt lat="51.532" lon="-0.032"><ele>0</ele>
	<name>Roman Road, London</name><desc>Source: Wikipedia article Roman Road, London</desc><cmt>Source: Wikipedia article Roman Road, London</cmt></wpt><wpt lat="51.5768" lon="0.1801"><ele>0</ele>
	<name>Romford</name><desc>Source: Wikipedia article Romford</desc><cmt>Source: Wikipedia article Romford</cmt></wpt><wpt lat="51.383" lon="-0.183"><ele>0</ele>
	<name>Rosehill, London</name><desc>Source: Wikipedia article Rosehill, London</desc><cmt>Source: Wikipedia article Rosehill, London</cmt></wpt><wpt lat="51.4989" lon="-0.0426"><ele>0</ele>
	<name>Rotherhithe</name><desc>Source: Wikipedia article Rotherhithe</desc><cmt>Source: Wikipedia article Rotherhithe</cmt></wpt><wpt lat="51.353318" lon="-0.126708"><ele>0</ele>
	<name>Roundshaw</name><desc>Source: Wikipedia article Roundshaw</desc><cmt>Source: Wikipedia article Roundshaw</cmt></wpt><wpt lat="51.574936" lon="-0.382424"><ele>0</ele>
	<name>Roxbourne</name><desc>Source: Wikipedia article Roxbourne</desc><cmt>Source: Wikipedia article Roxbourne</cmt></wpt><wpt lat="51.57" lon="-0.347"><ele>0</ele>
	<name>Roxeth</name><desc>Source: Wikipedia article Roxeth</desc><cmt>Source: Wikipedia article Roxeth</cmt></wpt><wpt lat="51.576" lon="-0.433"><ele>0</ele>
	<name>Ruislip</name><desc>Source: Wikipedia article Ruislip</desc><cmt>Source: Wikipedia article Ruislip</cmt></wpt><wpt lat="51.5602" lon="-0.4102"><ele>0</ele>
	<name>Ruislip Gardens</name><desc>Source: Wikipedia article Ruislip Gardens</desc><cmt>Source: Wikipedia article Ruislip Gardens</cmt></wpt><wpt lat="51.566754" lon="-0.407218"><ele>0</ele>
	<name>Ruislip Manor</name><desc>Source: Wikipedia article Ruislip Manor</desc><cmt>Source: Wikipedia article Ruislip Manor</cmt></wpt><wpt lat="51.5655" lon="0.176"><ele>0</ele>
	<name>Rush Green, London</name><desc>Source: Wikipedia article Rush Green, London</desc><cmt>Source: Wikipedia article Rush Green, London</cmt></wpt><wpt lat="51.4131" lon="0.1364"><ele>0</ele>
	<name>Ruxley</name><desc>Source: Wikipedia article Ruxley</desc><cmt>Source: Wikipedia article Ruxley</cmt></wpt><wpt lat="51.5201666666667" lon="-0.106641666666667"><ele>0</ele>
	<name>Saffron Hill</name><desc>Source: Wikipedia article Saffron Hill</desc><cmt>Source: Wikipedia article Saffron Hill</cmt></wpt><wpt lat="51.3358" lon="-0.0818"><ele>0</ele>
	<name>Sanderstead</name><desc>Source: Wikipedia article Sanderstead</desc><cmt>Source: Wikipedia article Sanderstead</cmt></wpt><wpt lat="51.473" lon="-0.18"><ele>0</ele>
	<name>Sands End</name><desc>Source: Wikipedia article Sands End</desc><cmt>Source: Wikipedia article Sands End</cmt></wpt><wpt lat="51.39344" lon="-0.3131"><ele>0</ele>
	<name>Seething Wells</name><desc>Source: Wikipedia article Seething Wells</desc><cmt>Source: Wikipedia article Seething Wells</cmt></wpt><wpt lat="51.3995" lon="-0.0747"><ele>0</ele>
	<name>Selhurst</name><desc>Source: Wikipedia article Selhurst</desc><cmt>Source: Wikipedia article Selhurst</cmt></wpt><wpt lat="51.3453" lon="-0.0535"><ele>0</ele>
	<name>Selsdon</name><desc>Source: Wikipedia article Selsdon</desc><cmt>Source: Wikipedia article Selsdon</cmt></wpt><wpt lat="51.56761" lon="0.09791"><ele>0</ele>
	<name>Seven Kings</name><desc>Source: Wikipedia article Seven Kings</desc><cmt>Source: Wikipedia article Seven Kings</cmt></wpt><wpt lat="51.582214" lon="-0.073708"><ele>0</ele>
	<name>Seven Sisters, London</name><desc>Source: Wikipedia article Seven Sisters, London</desc><cmt>Source: Wikipedia article Seven Sisters, London</cmt></wpt><wpt lat="51.554" lon="-0.072"><ele>0</ele>
	<name>Shacklewell</name><desc>Source: Wikipedia article Shacklewell</desc><cmt>Source: Wikipedia article Shacklewell</cmt></wpt><wpt lat="51.5071" lon="-0.0466"><ele>0</ele>
	<name>Shadwell</name><desc>Source: Wikipedia article Shadwell</desc><cmt>Source: Wikipedia article Shadwell</cmt></wpt><wpt lat="51.5042" lon="-0.2307"><ele>0</ele>
	<name>Shepherd's Bush</name><desc>Source: Wikipedia article Shepherd's Bush</desc><cmt>Source: Wikipedia article Shepherd's Bush</cmt></wpt><wpt lat="51.3813" lon="-0.0543"><ele>0</ele>
	<name>Shirley, London</name><desc>Source: Wikipedia article Shirley, London</desc><cmt>Source: Wikipedia article Shirley, London</cmt></wpt><wpt lat="51.381076" lon="-0.05697"><ele>0</ele>
	<name>Shirley Oaks</name><desc>Source: Wikipedia article Shirley Oaks</desc><cmt>Source: Wikipedia article Shirley Oaks</cmt></wpt><wpt lat="51.4691" lon="0.0669"><ele>0</ele>
	<name>Shooter's Hill</name><desc>Source: Wikipedia article Shooter's Hill</desc><cmt>Source: Wikipedia article Shooter's Hill</cmt></wpt><wpt lat="51.526" lon="-0.078"><ele>0</ele>
	<name>Shoreditch</name><desc>Source: Wikipedia article Shoreditch</desc><cmt>Source: Wikipedia article Shoreditch</cmt></wpt><wpt lat="51.4263" lon="0.1024"><ele>0</ele>
	<name>Sidcup</name><desc>Source: Wikipedia article Sidcup</desc><cmt>Source: Wikipedia article Sidcup</cmt></wpt><wpt lat="51.5" lon="0.03"><ele>0</ele>
	<name>Silvertown</name><desc>Source: Wikipedia article Silvertown</desc><cmt>Source: Wikipedia article Silvertown</cmt></wpt><wpt lat="51.487" lon="-0.456"><ele>0</ele>
	<name>Sipson</name><desc>Source: Wikipedia article Sipson</desc><cmt>Source: Wikipedia article Sipson</cmt></wpt><wpt lat="51.468" lon="0.189"><ele>0</ele>
	<name>Slade Green</name><desc>Source: Wikipedia article Slade Green</desc><cmt>Source: Wikipedia article Slade Green</cmt></wpt><wpt lat="51.519" lon="-0.102"><ele>0</ele>
	<name>Smithfield, London</name><desc>Source: Wikipedia article Smithfield, London</desc><cmt>Source: Wikipedia article Smithfield, London</cmt></wpt><wpt lat="51.587027" lon="0.014563"><ele>0</ele>
	<name>Snaresbrook</name><desc>Source: Wikipedia article Snaresbrook</desc><cmt>Source: Wikipedia article Snaresbrook</cmt></wpt><wpt lat="51.5127777777778" lon="-0.131111111111111"><ele>0</ele>
	<name>Soho</name><desc>Source: Wikipedia article Soho</desc><cmt>Source: Wikipedia article Soho</cmt></wpt><wpt lat="51.53097" lon="-0.131498"><ele>0</ele>
	<name>Somers Town, London</name><desc>Source: Wikipedia article Somers Town, London</desc><cmt>Source: Wikipedia article Somers Town, London</cmt></wpt><wpt lat="51.50019" lon="-0.286235"><ele>0</ele>
	<name>South Acton, London</name><desc>Source: Wikipedia article South Acton, London</desc><cmt>Source: Wikipedia article South Acton, London</cmt></wpt><wpt lat="51.508" lon="-0.11"><ele>0</ele>
	<name>South Bank</name><desc>Source: Wikipedia article South Bank</desc><cmt>Source: Wikipedia article South Bank</cmt></wpt>